{"07FA":{"lat":25.3254,"lon":-80.2748,"city":"Key Largo","country":"US","name":"Ocean Reef Club Airport"},"TAPB":{"lat":17.6212,"lon":-61.7983,"city":"Codrington","country":"AG","name":"Burton-Nibbs International Airport"},"AGGH":{"lat":-9.428,"lon":160.055,"city":"Honiara","country":"SB","name":"Honiara International Airport"},"AGGM":{"lat":-8.328,"lon":157.263,"city":"Munda","country":"SB","name":"Munda Airport"},"ANYN":{"lat":-0.5479,"lon":166.9195,"city":"Yaren","country":"NR","name":"Nauru International Airport"},"AQBC":{"lat":-74.7394,"lon":164.0354,"city":"Zucchelli Station","country":"AQ","name":"Boulder Clay Runway"},"AT03":{"lat":-75.1033,"lon":123.3582,"city":"Concordia Station","country":"AQ","name":"Concordia Skyway"},"AT28":{"lat":-78.4661,"lon":106.8482,"city":"Vostok Station","country":"AQ","name":"Vostok Skiway"},"AT98":{"lat":-71.5264,"lon":8.7995,"city":"Queen Maud Island","country":"AQ","name":"(Duplicate)Wolf's Fang Runway"},"ZBAL":{"lat":38.7483,"lon":105.5842,"city":"Bayanhot","country":"CN","name":"Alxa Left Banner Bayanhot Airport"},"AYBA":{"lat":-7.497,"lon":144.8218,"city":"Baimuru","country":"PG","name":"Baimuru Airport"},"AYBK":{"lat":-5.4223,"lon":154.6727,"city":"Buka Island","country":"PG","name":"Buka Airport"},"AYBM":{"lat":-8.05,"lon":142.933,"city":"Balimo","country":"PG","name":"Balimo Airport"},"AYCH":{"lat":-6.0243,"lon":144.971,"city":"Kundiawa","country":"PG","name":"Chimbu Airport"},"AYDU":{"lat":-9.0868,"lon":143.208,"city":"Daru","country":"PG","name":"Daru Airport"},"AYGA":{"lat":-6.0817,"lon":145.392,"city":"Goronka","country":"PG","name":"Goroka Airport"},"AYGN":{"lat":-10.3115,"lon":150.334,"city":"Gurney","country":"PG","name":"Gurney Airport"},"AYGR":{"lat":-8.8045,"lon":148.309,"city":"Popondetta","country":"PG","name":"Girua Airport"},"AYHK":{"lat":-5.4638,"lon":150.4073,"city":"Kimbe","country":"PG","name":"Hoskins Airport"},"AYKM":{"lat":-7.9636,"lon":145.771,"city":"Kerema","country":"PG","name":"Kerema Airport"},"AYKV":{"lat":-2.5794,"lon":150.808,"city":"Kavieng","country":"PG","name":"Kavieng Airport"},"AYMD":{"lat":-5.2071,"lon":145.789,"city":"Madang","country":"PG","name":"Madang Airport"},"AYMH":{"lat":-5.8282,"lon":144.2994,"city":"Mount Hagen","country":"PG","name":"Mount Hagen Kagamuga Airport"},"AYMN":{"lat":-6.1477,"lon":143.657,"city":"Mendi","country":"PG","name":"Mendi Airport"},"AYMO":{"lat":-2.0619,"lon":147.424,"city":"Manus Island","country":"PG","name":"Momote Airport"},"AYNZ":{"lat":-6.568,"lon":146.7265,"city":"Lae","country":"PG","name":"Nadzab Tomodachi International Airport"},"AYPY":{"lat":-9.4434,"lon":147.22,"city":"Port Moresby","country":"PG","name":"Port Moresby Jacksons International Airport"},"AYTK":{"lat":-4.3405,"lon":152.38,"city":"Kokopo","country":"PG","name":"Tokua Airport"},"AYVN":{"lat":-2.6926,"lon":141.3028,"city":"Vanimo","country":"PG","name":"Vanimo Airport"},"AYWD":{"lat":-5.6353,"lon":143.8922,"city":"Wapenamanda","country":"PG","name":"Wapenamanda Airport"},"AYWK":{"lat":-3.5838,"lon":143.669,"city":"Wewak","country":"PG","name":"Wewak International Airport"},"UBTT":{"lat":40.4949,"lon":49.9771,"city":"Zabrat","country":"AZ","name":"Zabrat Airport"},"LBIA":{"lat":42.4549,"lon":26.3522,"city":"Bezmer","country":"BG","name":"Bezmer Air Base"},"BGAA":{"lat":68.7218,"lon":-52.7847,"city":"Aasiaat","country":"GL","name":"Aasiaat Airport"},"BGBW":{"lat":61.1605,"lon":-45.426,"city":"Narsarsuaq","country":"GL","name":"Narsarsuaq Airport"},"BGCO":{"lat":70.7431,"lon":-22.6505,"city":"Neerlerit Inaat","country":"GL","name":"Neerlerit Inaat Airport"},"BGGH":{"lat":64.1911,"lon":-51.6791,"city":"Nuuk","country":"GL","name":"Nuuk International Airport"},"BGJN":{"lat":69.2432,"lon":-51.0571,"city":"Ilulissat","country":"GL","name":"Ilulissat Airport"},"BGKK":{"lat":65.5736,"lon":-37.1236,"city":"Kulusuk","country":"GL","name":"Kulusuk Airport"},"BGQQ":{"lat":77.4886,"lon":-69.3887,"city":"Qaanaaq","country":"GL","name":"Qaanaaq Airport"},"BGSF":{"lat":67.0104,"lon":-50.7153,"city":"Kangerlussuaq","country":"GL","name":"Kangerlussuaq International Airport"},"BGSS":{"lat":66.9513,"lon":-53.7293,"city":"Sisimiut","country":"GL","name":"Sisimiut Airport"},"BGTL":{"lat":76.5306,"lon":-68.7005,"city":"Pituffik","country":"GL","name":"Pituffik Space Base"},"BIAR":{"lat":65.6566,"lon":-18.072,"city":"Akureyri","country":"IS","name":"Akureyri International Airport"},"BIBD":{"lat":65.6413,"lon":-23.5462,"city":"Bildudalur","country":"IS","name":"Bildudalur Airport"},"BIEG":{"lat":65.2833,"lon":-14.4014,"city":"Egilssta\u00c3\u00b0ir","country":"IS","name":"Egilssta\u00c3\u00b0ir Airport"},"BIGR":{"lat":66.5458,"lon":-18.0173,"city":"Gr\u00c3\u00admsey/Sandv\u00c3\u00adk","country":"IS","name":"Gr\u00c3\u00admsey Airport"},"BIHN":{"lat":64.2956,"lon":-15.2272,"city":"H\u00c3\u00b6fn","country":"IS","name":"Hornafj\u00c3\u00b6r\u00c3\u00b0ur Airport"},"BIHU":{"lat":65.9523,"lon":-17.426,"city":"H\u00c3\u00basav\u00c3\u00adk","country":"IS","name":"H\u00c3\u00basav\u00c3\u00adk Airport"},"BIIS":{"lat":66.0581,"lon":-23.1353,"city":"\u00c3\udc8dsafj\u00c3\u00b6r\u00c3\u00b0ur","country":"IS","name":"\u00c3\udc8dsafj\u00c3\u00b6r\u00c3\u00b0ur Airport"},"BIKF":{"lat":63.985,"lon":-22.6056,"city":"Reykjav\u00c3\u00adk","country":"IS","name":"Keflavik International Airport"},"BIRK":{"lat":64.1287,"lon":-21.9376,"city":"Reykjav\u00c3\u00adk","country":"IS","name":"Reykjav\u00c3\u00adk Domestic Airport"},"BIRL":{"lat":65.6558,"lon":-16.9181,"city":"Myvatn","country":"IS","name":"M\u00c3\u00bdvatn Airport"},"BISI":{"lat":66.1378,"lon":-18.9082,"city":"Siglufj\u00c3\u00b6r\u00c3\u00b0ur","country":"IS","name":"Siglufj\u00c3\u00b6r\u00c3\u00b0ur Airport"},"BIVM":{"lat":63.4243,"lon":-20.2789,"city":"Vestmannaeyjar","country":"IS","name":"Vestmannaeyjar Airport"},"BIVO":{"lat":65.7206,"lon":-14.8506,"city":"Vopnafj\u00c3\u00b6r\u00c3\u00b0ur","country":"IS","name":"Vopnafj\u00c3\u00b6r\u00c3\u00b0ur Airport"},"BKPR":{"lat":42.5728,"lon":21.0358,"city":"Prishtina","country":"XK","name":"Pri\u00c5\u00a1tina Adem Jashari International Airport"},"SBVC":{"lat":-14.9079,"lon":-40.9148,"city":"Vit\u00c3\u00b3ria da Conquista","country":"BR","name":"Glauber de Andrade Rocha Airport"},"VTSY":{"lat":5.79,"lon":101.15,"city":"Betong","country":"TH","name":"Betong International Airport"},"UMIO":{"lat":54.44,"lon":30.2967,"city":"Orsha","country":"BY","name":"Orsha Airport - Balbasovo Air Base"},"UMMO":{"lat":52.557,"lon":24.884,"city":"Byaroza","country":"BY","name":"Osovtsy Air Base"},"MZCK":{"lat":17.735,"lon":-88.0329,"city":"Caye Caulker","country":"BZ","name":"Caye Caulker Airport"},"MZCP":{"lat":17.6838,"lon":-88.045,"city":"Caye Chapel","country":"BZ","name":"Caye Chapel Airport"},"MZCZ":{"lat":18.3822,"lon":-88.4119,"city":"Corozal","country":"BZ","name":"Corozal Airport"},"MZPB":{"lat":16.9825,"lon":-88.231,"city":"Dangriga","country":"BZ","name":"Dangriga Airport"},"MZSJ":{"lat":18.3561,"lon":-88.1308,"city":"Sartaneja","country":"BZ","name":"Sartaneja Airport"},"MZSP":{"lat":17.9139,"lon":-87.9711,"city":"San Pedro","country":"BZ","name":"John Greif II Airport"},"MZBE":{"lat":17.5172,"lon":-88.1958,"city":"Belize City","country":"BZ","name":"Sir Barry Bowen Municipal Airport"},"CAJ4":{"lat":52.4515,"lon":-125.3038,"city":"Anahim Lake","country":"CA","name":"Anahim Lake Airport"},"CAT4":{"lat":49.3375,"lon":-124.3931,"city":"Qualicum Beach","country":"CA","name":"Qualicum Beach Airport"},"CAZ5":{"lat":50.7753,"lon":-121.3213,"city":"Cache Creek","country":"CA","name":"Cache Creek-Ashcroft Regional Airport"},"CBBC":{"lat":52.185,"lon":-128.157,"city":"Bella Bella","country":"CA","name":"Bella Bella (Campbell Island) Airport"},"ZBLX":{"lat":39.7578,"lon":116.126,"city":"Beijing","country":"CN","name":"Liangxiangzhen Air Base"},"ZGCS":{"lat":28.0685,"lon":112.9573,"city":"Changsha (Tianxin)","country":"CN","name":"Changsha Datuopu Airport / Changsha Air Base"},"ZUBZ":{"lat":31.7384,"lon":106.6449,"city":"Bazhong","country":"CN","name":"Bazhong Enyang Airport"},"ZGSG":{"lat":24.9786,"lon":113.421,"city":"Shaoguan","country":"CN","name":"Shaoguan Danxia Airport"},"ZSGS":{"lat":26.8569,"lon":114.737,"city":"Ji'an","country":"CN","name":"Jinggangshan Airport"},"ZWML":{"lat":42.1814,"lon":87.1881,"city":"Hoxud, Bayingolin","country":"CN","name":"Uxxaktal Air Base"},"ZSJX":{"lat":30.7055,"lon":120.6798,"city":"Xiuzhou, Hangzhou","country":"CN","name":"Jiaxing Airport / Jiaxing Air Base"},"ZBNY":{"lat":39.486,"lon":116.3724,"city":"Beijing","country":"CN","name":"Beijing Nanjiao Military Airport"},"ZYSY":{"lat":41.8225,"lon":123.299,"city":"Yuhong, Shenyang","country":"CN","name":"Shenyang Yuhong Quansheng Airport"},"ZUDR":{"lat":28.6046,"lon":86.798,"city":"Xigaz\u00c3\u00aa (Dingri)","country":"CN","name":"Rikaze Dingri Airport"},"ZWTK":{"lat":37.6613,"lon":75.2889,"city":"Tashikuergan","country":"CN","name":"Tashikuergan Hongqilafu Airport"},"ZSTZ":{"lat":30.7977,"lon":119.5903,"city":"Anji","country":"CN","name":"Anji Tianzihu General Airport"},"ZUPL":{"lat":30.3979,"lon":81.1332,"city":"Burang Town","country":"CN","name":"Ali Pulan Airport"},"ZSBA":{"lat":33.1658,"lon":117.0573,"city":"Bengbu","country":"CN","name":"Bengbu Tenghu Airport (U.C.)"},"CNC3":{"lat":43.7603,"lon":-79.875,"city":"","country":"CA","name":"Brampton-Caledon Airport"},"CYAG":{"lat":48.6557,"lon":-93.4435,"city":"Fort Frances","country":"CA","name":"Fort Frances Municipal Airport"},"CYAH":{"lat":53.7547,"lon":-73.6753,"city":"La Grande-4","country":"CA","name":"La Grande-4 Airport"},"CYAM":{"lat":46.4832,"lon":-84.5085,"city":"Sault Ste Marie","country":"CA","name":"Sault Ste Marie Airport"},"CYAQ":{"lat":53.5247,"lon":-88.6428,"city":"Kasabonika","country":"CA","name":"Kasabonika Airport"},"CYAV":{"lat":50.0564,"lon":-97.0325,"city":"Winnipeg/Saint Andrews","country":"CA","name":"Winnipeg / St. Andrews Airport"},"CYAX":{"lat":50.2944,"lon":-96.01,"city":"Lac du Bonnet","country":"CA","name":"Lac du Bonnet Airport"},"CYAY":{"lat":51.3919,"lon":-56.0832,"city":"St. Anthony","country":"CA","name":"St. Anthony Airport"},"CYAZ":{"lat":49.0798,"lon":-125.7756,"city":"Tofino","country":"CA","name":"Tofino / Long Beach Airport"},"CYBC":{"lat":49.1325,"lon":-68.2044,"city":"Baie-Comeau","country":"CA","name":"Baie-Comeau Airport"},"CYBD":{"lat":52.3875,"lon":-126.596,"city":"Bella Coola","country":"CA","name":"Bella Coola Airport"},"CYBF":{"lat":54.3042,"lon":-110.744,"city":"Bonnyville","country":"CA","name":"Bonnyville Airport"},"CYBG":{"lat":48.3301,"lon":-70.992,"city":"Saguenay","country":"CA","name":"Saguenay-Bagotville Airport"},"CYBK":{"lat":64.2989,"lon":-96.0778,"city":"Baker Lake","country":"CA","name":"Baker Lake Airport"},"CYBL":{"lat":49.9508,"lon":-125.271,"city":"Campbell River","country":"CA","name":"Campbell River Airport"},"CYBR":{"lat":49.91,"lon":-99.9519,"city":"Brandon","country":"CA","name":"Brandon Municipal Airport"},"CYBU":{"lat":53.3325,"lon":-104.008,"city":"Nipawin","country":"CA","name":"Nipawin Airport"},"CYBW":{"lat":51.104,"lon":-114.3694,"city":"Calgary","country":"CA","name":"Calgary / Springbank Airport"},"CYBX":{"lat":51.4436,"lon":-57.1853,"city":"Blanc-Sablon","country":"CA","name":"Lourdes-de-Blanc-Sablon Airport"},"CYCB":{"lat":69.1081,"lon":-105.138,"city":"Cambridge Bay","country":"CA","name":"Cambridge Bay Airport"},"CYCC":{"lat":45.0926,"lon":-74.5677,"city":"Cornwall","country":"CA","name":"Cornwall Regional Airport"},"CYCD":{"lat":49.055,"lon":-123.8699,"city":"Nanaimo","country":"CA","name":"Nanaimo Airport"},"CYCE":{"lat":43.2856,"lon":-81.5083,"city":"Huron Park","country":"CA","name":"Centralia / James T. Field Memorial Aerodrome"},"CYCG":{"lat":49.2964,"lon":-117.632,"city":"Castlegar","country":"CA","name":"Castlegar/West Kootenay Regional Airport"},"CYCH":{"lat":47.0078,"lon":-65.4492,"city":"Miramichi","country":"CA","name":"Miramichi Airport"},"CYCL":{"lat":47.9908,"lon":-66.3303,"city":"Charlo","country":"CA","name":"Charlo Airport"},"CYCN":{"lat":49.1056,"lon":-81.0136,"city":"Cochrane","country":"CA","name":"Cochrane Airport"},"CYCP":{"lat":52.1167,"lon":-119.283,"city":"Blue River","country":"CA","name":"Blue River Airport"},"CYCQ":{"lat":55.6872,"lon":-121.627,"city":"Chetwynd","country":"CA","name":"Chetwynd Airport"},"CYDA":{"lat":64.0431,"lon":-139.128,"city":"Dawson City","country":"CA","name":"Dawson City Airport"},"CYDB":{"lat":61.3711,"lon":-139.041,"city":"Burwash Landing","country":"CA","name":"Burwash Airport"},"CYDF":{"lat":49.2082,"lon":-57.3961,"city":"Deer Lake","country":"CA","name":"Deer Lake Airport"},"CYDM":{"lat":61.9706,"lon":-132.423,"city":"Ross River","country":"CA","name":"Ross River Airport"},"CYDN":{"lat":51.1008,"lon":-100.052,"city":"Dauphin","country":"CA","name":"Dauphin Barker Airport"},"CYDO":{"lat":48.7785,"lon":-72.375,"city":"Dolbeau-Saint-Felicien","country":"CA","name":"Dolbeau-Saint-Felicien Airport"},"CYDQ":{"lat":55.7412,"lon":-120.1833,"city":"Dawson Creek","country":"CA","name":"Dawson Creek Airport"},"CYEE":{"lat":44.6833,"lon":-79.9283,"city":"Midland","country":"CA","name":"Huronia Airport"},"CYEG":{"lat":53.3097,"lon":-113.58,"city":"Edmonton","country":"CA","name":"Edmonton International Airport"},"CYEL":{"lat":46.3514,"lon":-82.5614,"city":"Elliot Lake","country":"CA","name":"Elliot Lake Municipal Airport"},"CYEM":{"lat":45.8424,"lon":-81.8576,"city":"Sheguiandah","country":"CA","name":"Manitoulin East Municipal Airport"},"CYEN":{"lat":49.2103,"lon":-102.966,"city":"Estevan","country":"CA","name":"Estevan Airport"},"CYET":{"lat":53.5789,"lon":-116.465,"city":"Edson","country":"CA","name":"Edson Airport"},"CYEV":{"lat":68.3042,"lon":-133.483,"city":"Inuvik","country":"CA","name":"Inuvik Mike Zubko Airport"},"CYEY":{"lat":48.5639,"lon":-78.2497,"city":"Amos","country":"CA","name":"Amos/Magny Airport"},"CYFB":{"lat":63.7564,"lon":-68.5558,"city":"Iqaluit","country":"CA","name":"Iqaluit Airport"},"CYFC":{"lat":45.8687,"lon":-66.5299,"city":"Fredericton","country":"CA","name":"Fredericton International Airport"},"CYFD":{"lat":43.1314,"lon":-80.3425,"city":"Brantford","country":"CA","name":"Brantford Municipal Airport"},"CYFE":{"lat":48.7461,"lon":-69.0972,"city":"Forestville","country":"CA","name":"Forestville Airport"},"CYFJ":{"lat":46.4094,"lon":-74.78,"city":"La Macaza","country":"CA","name":"Mont-Tremblant International Airport"},"CYFR":{"lat":61.1808,"lon":-113.69,"city":"Fort Resolution","country":"CA","name":"Fort Resolution Airport"},"CYFS":{"lat":61.7602,"lon":-121.237,"city":"Fort Simpson","country":"CA","name":"Fort Simpson Airport"},"CYGD":{"lat":43.7669,"lon":-81.7106,"city":"Goderich","country":"CA","name":"Goderich Airport"},"CYGE":{"lat":51.2992,"lon":-116.982,"city":"Golden","country":"CA","name":"Golden Airport"},"CYGK":{"lat":44.2253,"lon":-76.5969,"city":"Kingston","country":"CA","name":"Kingston Norman Rogers Airport"},"CYGL":{"lat":53.6253,"lon":-77.7042,"city":"La Grande Rivi\u00c3\u00a8re","country":"CA","name":"La Grande Rivi\u00c3\u00a8re Airport"},"CYGM":{"lat":50.6281,"lon":-97.0433,"city":"Gimli","country":"CA","name":"Gimli Industrial Park Airport"},"CYGP":{"lat":48.7749,"lon":-64.4819,"city":"Gasp\u00c3\u00a9","country":"CA","name":"Michel-Pouliot Gasp\u00c3\u00a9 Airport"},"CYGQ":{"lat":49.7783,"lon":-86.9394,"city":"Geraldton","country":"CA","name":"Geraldton Greenstone Regional Airport"},"CYGR":{"lat":47.4252,"lon":-61.7786,"city":"Les \u00c3\u017dles-de-la-Madeleine","country":"CA","name":"\u00c3\u017dles-de-la-Madeleine Airport"},"CYGV":{"lat":50.2819,"lon":-63.6114,"city":"Havre-Saint-Pierre","country":"CA","name":"Havre-Saint-Pierre Airport"},"CYGW":{"lat":55.2819,"lon":-77.7653,"city":"Kuujjuarapik","country":"CA","name":"Kuujjuarapik Airport"},"CYHD":{"lat":49.8317,"lon":-92.7442,"city":"Dryden","country":"CA","name":"Dryden Regional Airport"},"CYHF":{"lat":49.7142,"lon":-83.6861,"city":"Hearst","country":"CA","name":"Hearst Ren\u00c3\u00a9 Fontaine Municipal Airport"},"CYHM":{"lat":43.1735,"lon":-79.9312,"city":"Hamilton","country":"CA","name":"John C. Munro Hamilton International Airport"},"CYHN":{"lat":49.1931,"lon":-84.7589,"city":"Hornepayne","country":"CA","name":"Hornepayne Municipal Airport"},"CYHT":{"lat":60.7892,"lon":-137.546,"city":"Haines Junction","country":"CA","name":"Haines Junction Airport"},"CYHU":{"lat":45.5175,"lon":-73.4169,"city":"Montr\u00c3\u00a9al","country":"CA","name":"Montr\u00c3\u00a9al / Saint-Hubert Metropolitan Airport"},"CYHY":{"lat":60.8397,"lon":-115.783,"city":"Hay River","country":"CA","name":"Hay River / Merlyn Carter Airport"},"CYHZ":{"lat":44.8808,"lon":-63.5086,"city":"Halifax","country":"CA","name":"Halifax / Stanfield International Airport"},"CYIB":{"lat":48.7739,"lon":-91.6386,"city":"Atikokan","country":"CA","name":"Atikokan Municipal Airport"},"CYID":{"lat":44.5458,"lon":-65.7854,"city":"Digby","country":"CA","name":"Digby / Annapolis Regional Airport"},"CYIF":{"lat":51.2117,"lon":-58.6583,"city":"St-Augustin","country":"CA","name":"St Augustin Airport"},"CYIV":{"lat":53.8572,"lon":-94.6536,"city":"Island Lake","country":"CA","name":"Island Lake Airport"},"CYJF":{"lat":60.2358,"lon":-123.469,"city":"Fort Liard","country":"CA","name":"Fort Liard Airport"},"CYJN":{"lat":45.2944,"lon":-73.2811,"city":"St Jean","country":"CA","name":"St Jean Airport"},"CYJT":{"lat":48.5434,"lon":-58.5529,"city":"Stephenville","country":"CA","name":"Stephenville Dymond International Airport"},"CYKA":{"lat":50.703,"lon":-120.4486,"city":"Kamloops","country":"CA","name":"Kamloops John Moose Fulton Field Regional Airport"},"CYKF":{"lat":43.4608,"lon":-80.3786,"city":"Breslau","country":"CA","name":"Region of Waterloo International Airport"},"CYKJ":{"lat":57.2561,"lon":-105.618,"city":"Key Lake","country":"CA","name":"Key Lake Airport"},"CYKL":{"lat":54.8053,"lon":-66.8053,"city":"Schefferville","country":"CA","name":"Schefferville Airport"},"CYKM":{"lat":44.2014,"lon":-81.6067,"city":"Kincardine","country":"CA","name":"Kincardine Municipal Airport"},"CYKX":{"lat":48.2103,"lon":-79.9814,"city":"Kirkland Lake","country":"CA","name":"Kirkland Lake Airport"},"CYKY":{"lat":51.5175,"lon":-109.181,"city":"Kindersley","country":"CA","name":"Kindersley Airport"},"CYLD":{"lat":47.82,"lon":-83.3467,"city":"Chapleau","country":"CA","name":"Chapleau Airport"},"CYLJ":{"lat":54.1253,"lon":-108.523,"city":"Meadow Lake","country":"CA","name":"Meadow Lake Airport"},"CYLL":{"lat":53.3092,"lon":-110.073,"city":"Lloydminster","country":"CA","name":"Lloydminster Airport"},"CYLR":{"lat":56.5133,"lon":-99.9853,"city":"Leaf Rapids","country":"CA","name":"Leaf Rapids Airport"},"CYLS":{"lat":44.4851,"lon":-79.5547,"city":"Barrie","country":"CA","name":"Barrie-Lake Simcoe Regional Airport"},"CYLT":{"lat":82.5173,"lon":-62.283,"city":"Alert","country":"CA","name":"Alert Airport"},"CYLW":{"lat":49.9561,"lon":-119.378,"city":"Kelowna","country":"CA","name":"Kelowna International Airport"},"CYMA":{"lat":63.6164,"lon":-135.868,"city":"Mayo","country":"CA","name":"Mayo Airport"},"CYME":{"lat":48.8569,"lon":-67.4533,"city":"Matane","country":"CA","name":"Matane Airport"},"CYMG":{"lat":49.0839,"lon":-85.8606,"city":"Manitouwadge","country":"CA","name":"Manitouwadge Airport"},"CYMJ":{"lat":50.3303,"lon":-105.559,"city":"Moose Jaw","country":"CA","name":"Moose Jaw Air Vice Marshal C. M. McEwen Airport"},"CYML":{"lat":47.5975,"lon":-70.2239,"city":"Charlevoix","country":"CA","name":"Charlevoix Airport"},"CYMM":{"lat":56.6533,"lon":-111.222,"city":"Fort McMurray","country":"CA","name":"Fort McMurray International Airport"},"CYMO":{"lat":51.2911,"lon":-80.6078,"city":"Moosonee","country":"CA","name":"Moosonee Airport"},"CYMT":{"lat":49.7719,"lon":-74.5281,"city":"Chibougamau","country":"CA","name":"Chapais Airport"},"CYMX":{"lat":45.6795,"lon":-74.0387,"city":"Montr\u00c3\u00a9al","country":"CA","name":"Montreal Mirabel International Airport"},"CYNA":{"lat":50.1901,"lon":-61.789,"city":"Natashquan","country":"CA","name":"Natashquan Airport"},"CYND":{"lat":45.5217,"lon":-75.5636,"city":"Gatineau","country":"CA","name":"Ottawa / Gatineau Airport"},"CYNJ":{"lat":49.1008,"lon":-122.631,"city":"Langley","country":"CA","name":"Langley Airport"},"CYNL":{"lat":58.2767,"lon":-104.082,"city":"Points North Landing","country":"CA","name":"Points North Landing Airport"},"CYNM":{"lat":49.7617,"lon":-77.8028,"city":"Matagami","country":"CA","name":"Matagami Airport"},"CYNN":{"lat":59.4875,"lon":-97.7803,"city":"Nejanilini Lake","country":"CA","name":"Nejanilini Lake Airport"},"CYOA":{"lat":64.6989,"lon":-110.615,"city":"Ekati","country":"CA","name":"Ekati Airport"},"CYOD":{"lat":54.405,"lon":-110.279,"city":"Cold Lake","country":"CA","name":"CFB Cold Lake"},"CYOJ":{"lat":58.6214,"lon":-117.165,"city":"High Level","country":"CA","name":"High Level Airport"},"CYOO":{"lat":43.9228,"lon":-78.895,"city":"Oshawa","country":"CA","name":"Oshawa Executive Airport"},"CYOP":{"lat":58.4914,"lon":-119.408,"city":"Rainbow Lake","country":"CA","name":"Rainbow Lake Airport"},"CYOS":{"lat":44.5903,"lon":-80.8375,"city":"Owen Sound","country":"CA","name":"Owen Sound / Billy Bishop Regional Airport"},"CYOW":{"lat":45.3225,"lon":-75.6692,"city":"Ottawa","country":"CA","name":"Ottawa Macdonald-Cartier International Airport"},"CYPA":{"lat":53.2142,"lon":-105.673,"city":"Prince Albert","country":"CA","name":"Prince Albert Glass Field"},"CYPD":{"lat":45.6567,"lon":-61.3681,"city":"Port Hawkesbury","country":"CA","name":"Port Hawkesbury Airport"},"CYPE":{"lat":56.2269,"lon":-117.447,"city":"Peace River","country":"CA","name":"Peace River Airport"},"CYPG":{"lat":49.9031,"lon":-98.2738,"city":"Portage la Prairie","country":"CA","name":"Portage-la-Prairie / Southport Airport"},"CYPK":{"lat":49.2149,"lon":-122.7093,"city":"Pitt Meadows","country":"CA","name":"Pitt Meadows Regional Airport"},"CYPL":{"lat":51.4464,"lon":-90.2142,"city":"Pickle Lake","country":"CA","name":"Pickle Lake Airport"},"CYPN":{"lat":49.8364,"lon":-64.2886,"city":"Port-Menier","country":"CA","name":"Port-Menier Airport"},"CYPQ":{"lat":44.2323,"lon":-78.3621,"city":"Peterborough","country":"CA","name":"Peterborough Regional Airport"},"CYPR":{"lat":54.2861,"lon":-130.445,"city":"Prince Rupert","country":"CA","name":"Prince Rupert Airport"},"CYPW":{"lat":49.8342,"lon":-124.5,"city":"Powell River","country":"CA","name":"Powell River Airport"},"CYPX":{"lat":60.0506,"lon":-77.2869,"city":"Puvirnituq","country":"CA","name":"Puvirnituq Airport"},"CYPY":{"lat":58.7672,"lon":-111.117,"city":"Fort Chipewyan","country":"CA","name":"Fort Chipewyan Airport"},"CYPZ":{"lat":54.3764,"lon":-125.951,"city":"Burns Lake","country":"CA","name":"Burns Lake Airport"},"CYQA":{"lat":44.9754,"lon":-79.3065,"city":"Gravenhurst","country":"CA","name":"Muskoka Airport"},"CYQB":{"lat":46.7911,"lon":-71.3933,"city":"Quebec","country":"CA","name":"Quebec Jean Lesage International Airport"},"CYQD":{"lat":53.9714,"lon":-101.091,"city":"The Pas","country":"CA","name":"The Pas Airport"},"CYQF":{"lat":52.1822,"lon":-113.894,"city":"Springbrook","country":"CA","name":"Red Deer Regional Airport"},"CYQG":{"lat":42.2756,"lon":-82.9556,"city":"Windsor","country":"CA","name":"Windsor International Airport"},"CYQH":{"lat":60.1168,"lon":-128.822,"city":"Watson Lake","country":"CA","name":"Watson Lake Airport"},"CYQI":{"lat":43.8269,"lon":-66.0881,"city":"Yarmouth","country":"CA","name":"Yarmouth Airport"},"CYQK":{"lat":49.7883,"lon":-94.3631,"city":"Kenora","country":"CA","name":"Kenora Airport"},"CYQL":{"lat":49.6303,"lon":-112.8,"city":"Lethbridge","country":"CA","name":"Lethbridge County Airport"},"CYQM":{"lat":46.1132,"lon":-64.6772,"city":"Moncton","country":"CA","name":"Greater Moncton Rom\u00c3\u00a9o LeBlanc International Airport"},"CYQN":{"lat":50.1828,"lon":-86.6964,"city":"Nakina","country":"CA","name":"Nakina Airport"},"CYQQ":{"lat":49.7108,"lon":-124.887,"city":"Comox","country":"CA","name":"Comox Valley International Airport / CFB Comox"},"CYQR":{"lat":50.4319,"lon":-104.6609,"city":"Regina","country":"CA","name":"Regina International Airport"},"CYQS":{"lat":42.77,"lon":-81.1108,"city":"St Thomas","country":"CA","name":"St Thomas Municipal Airport"},"CYQT":{"lat":48.3719,"lon":-89.3239,"city":"Thunder Bay","country":"CA","name":"Thunder Bay International Airport"},"CYQU":{"lat":55.1797,"lon":-118.885,"city":"Grande Prairie","country":"CA","name":"Grande Prairie Airport"},"CYQV":{"lat":51.2647,"lon":-102.462,"city":"Yorkton","country":"CA","name":"Yorkton Municipal Airport"},"CYQW":{"lat":52.7694,"lon":-108.2437,"city":"North Battleford","country":"CA","name":"North Battleford Airport"},"CYQX":{"lat":48.9363,"lon":-54.5677,"city":"Gander","country":"CA","name":"Gander International Airport"},"CYQY":{"lat":46.1611,"lon":-60.0498,"city":"Sydney","country":"CA","name":"Sydney / J.A. Douglas McCurdy Airport"},"CYQZ":{"lat":53.0261,"lon":-122.51,"city":"Quesnel","country":"CA","name":"Quesnel Airport"},"CYRB":{"lat":74.7169,"lon":-94.9694,"city":"Resolute Bay","country":"CA","name":"Resolute Bay Airport"},"CYRI":{"lat":47.7644,"lon":-69.5847,"city":"Rivi\u00c3\u00a8re-du-Loup","country":"CA","name":"Rivi\u00c3\u00a8re-du-Loup Airport"},"CYRJ":{"lat":48.5197,"lon":-72.2657,"city":"Roberval","country":"CA","name":"Roberval Airport"},"CYRL":{"lat":51.0669,"lon":-93.7931,"city":"Red Lake","country":"CA","name":"Red Lake Airport"},"CYRO":{"lat":45.4605,"lon":-75.644,"city":"Ottawa","country":"CA","name":"Ottawa / Rockcliffe Airport"},"CYRP":{"lat":45.3192,"lon":-76.0222,"city":"Ottawa","country":"CA","name":"Ottawa / Carp Airport"},"CYRQ":{"lat":46.3528,"lon":-72.6794,"city":"Trois-Rivi\u00c3\u00a8res","country":"CA","name":"Trois-Rivi\u00c3\u00a8res Airport"},"CYRT":{"lat":62.8114,"lon":-92.1158,"city":"Rankin Inlet","country":"CA","name":"Rankin Inlet Airport"},"CYRV":{"lat":50.9622,"lon":-118.1843,"city":"Revelstoke","country":"CA","name":"Revelstoke Airport"},"CYSB":{"lat":46.625,"lon":-80.7989,"city":"Sudbury","country":"CA","name":"Sudbury Airport"},"CYSC":{"lat":45.4386,"lon":-71.6914,"city":"Sherbrooke","country":"CA","name":"Sherbrooke Airport"},"CYSF":{"lat":59.2503,"lon":-105.841,"city":"Stony Rapids","country":"CA","name":"Stony Rapids Airport"},"CYSG":{"lat":46.0964,"lon":-70.7147,"city":"Saint-Georges","country":"CA","name":"Saint-Georges Airport"},"CYSH":{"lat":44.9458,"lon":-75.9406,"city":"Smiths Falls","country":"CA","name":"Smiths Falls-Montague (Russ Beach) Airport"},"CYSJ":{"lat":45.3161,"lon":-65.8903,"city":"Saint John","country":"CA","name":"Saint John Airport"},"CYSL":{"lat":47.1571,"lon":-67.8362,"city":"Saint-L\u00c3\u00a9onard","country":"CA","name":"Saint-L\u00c3\u00a9onard Airport"},"CYSM":{"lat":60.0203,"lon":-111.962,"city":"Fort Smith","country":"CA","name":"Fort Smith Airport"},"CYSN":{"lat":43.1916,"lon":-79.1717,"city":"Niagara-on-the-Lake","country":"CA","name":"Niagara District Airport"},"CYSP":{"lat":48.7553,"lon":-86.3444,"city":"Marathon","country":"CA","name":"Marathon Airport"},"CYSU":{"lat":46.4406,"lon":-63.8336,"city":"Slemon Park","country":"CA","name":"Summerside Airport"},"CYTA":{"lat":45.8644,"lon":-77.2517,"city":"Pembroke","country":"CA","name":"Pembroke Airport"},"CYTF":{"lat":48.5089,"lon":-71.6419,"city":"Alma","country":"CA","name":"Alma Airport"},"CYTH":{"lat":55.8011,"lon":-97.8642,"city":"Thompson","country":"CA","name":"Thompson Airport"},"CYTR":{"lat":44.1189,"lon":-77.5281,"city":"Trenton","country":"CA","name":"CFB Trenton"},"CYTS":{"lat":48.5697,"lon":-81.3767,"city":"Timmins","country":"CA","name":"Timmins/Victor M. Power"},"CYTZ":{"lat":43.6279,"lon":-79.3955,"city":"Toronto","country":"CA","name":"Billy Bishop Toronto City Airport"},"CYUL":{"lat":45.4678,"lon":-73.7423,"city":"Montr\u00c3\u00a9al","country":"CA","name":"Montreal / Pierre Elliott Trudeau International Airport"},"CYUX":{"lat":68.7761,"lon":-81.2425,"city":"Sanirajak","country":"CA","name":"Hall Beach Airport"},"CYUY":{"lat":48.2061,"lon":-78.8356,"city":"Rouyn-Noranda","country":"CA","name":"Rouyn Noranda Airport"},"CYVB":{"lat":48.0711,"lon":-65.4603,"city":"Bonaventure","country":"CA","name":"Bonaventure Airport"},"CYVC":{"lat":55.1514,"lon":-105.262,"city":"La Ronge","country":"CA","name":"La Ronge Airport"},"CYVD":{"lat":49.8783,"lon":-100.918,"city":"Virden","country":"CA","name":"Virden / RJ (Bob) Andrew Field Regional Aerodrome"},"CYVK":{"lat":50.2462,"lon":-119.331,"city":"Vernon","country":"CA","name":"Vernon Regional Airport"},"CYVO":{"lat":48.0533,"lon":-77.7828,"city":"Val-d'Or","country":"CA","name":"Val-d'Or Airport"},"CYVP":{"lat":58.0961,"lon":-68.4269,"city":"Kuujjuaq","country":"CA","name":"Kuujjuaq Airport"},"CYVQ":{"lat":65.2816,"lon":-126.798,"city":"Norman Wells","country":"CA","name":"Norman Wells Airport"},"CYVR":{"lat":49.1939,"lon":-123.184,"city":"Vancouver","country":"CA","name":"Vancouver International Airport"},"CYVV":{"lat":44.7458,"lon":-81.1072,"city":"Wiarton","country":"CA","name":"Wiarton Airport"},"CYWG":{"lat":49.91,"lon":-97.2399,"city":"Winnipeg","country":"CA","name":"Winnipeg / James Armstrong Richardson International Airport"},"CYWK":{"lat":52.9219,"lon":-66.8644,"city":"Wabush","country":"CA","name":"Wabush Airport"},"CYWL":{"lat":52.1831,"lon":-122.054,"city":"Williams Lake","country":"CA","name":"Williams Lake Airport"},"CYWY":{"lat":63.2094,"lon":-123.437,"city":"Wrigley","country":"CA","name":"Wrigley Airport"},"CYXC":{"lat":49.6108,"lon":-115.782,"city":"Cranbrook","country":"CA","name":"Cranbrook/Canadian Rockies International Airport"},"CYXE":{"lat":52.1707,"lon":-106.7008,"city":"Saskatoon","country":"CA","name":"Saskatoon John G. Diefenbaker International Airport"},"CYXH":{"lat":50.0189,"lon":-110.721,"city":"Medicine Hat","country":"CA","name":"Medicine Hat Regional Airport"},"CYXJ":{"lat":56.2381,"lon":-120.74,"city":"Fort Saint John","country":"CA","name":"Fort St John / North Peace Regional Airport"},"CYXK":{"lat":48.4776,"lon":-68.4963,"city":"Rimouski","country":"CA","name":"Rimouski Airport"},"CYXL":{"lat":50.1139,"lon":-91.9053,"city":"Sioux Lookout","country":"CA","name":"Sioux Lookout Airport"},"CYXQ":{"lat":62.4103,"lon":-140.867,"city":"Beaver Creek","country":"CA","name":"Beaver Creek Airport"},"CYXR":{"lat":47.6974,"lon":-79.8473,"city":"Earlton","country":"CA","name":"Earlton (Timiskaming Regional) Airport"},"CYXS":{"lat":53.8843,"lon":-122.6666,"city":"Prince George","country":"CA","name":"Prince George (International) Airport"},"CYXT":{"lat":54.4685,"lon":-128.576,"city":"Terrace","country":"CA","name":"Northwest Regional Airport Terrace-Kitimat"},"CYXU":{"lat":43.0328,"lon":-81.149,"city":"London","country":"CA","name":"London International Airport"},"CYXX":{"lat":49.0253,"lon":-122.361,"city":"Abbotsford","country":"CA","name":"Abbotsford International Airport"},"CYXY":{"lat":60.7085,"lon":-135.0657,"city":"Whitehorse","country":"CA","name":"Whitehorse / Erik Nielsen International Airport"},"CYXZ":{"lat":47.9667,"lon":-84.7867,"city":"Wawa","country":"CA","name":"Wawa Airport"},"CYYB":{"lat":46.3636,"lon":-79.4228,"city":"North Bay","country":"CA","name":"North Bay Jack Garland Airport"},"CYYC":{"lat":51.1188,"lon":-114.0099,"city":"Calgary","country":"CA","name":"Calgary International Airport"},"CYYD":{"lat":54.8247,"lon":-127.183,"city":"Smithers","country":"CA","name":"Smithers Airport"},"CYYE":{"lat":58.8364,"lon":-122.597,"city":"Fort Nelson","country":"CA","name":"Fort Nelson Airport"},"CYYF":{"lat":49.4631,"lon":-119.602,"city":"Penticton","country":"CA","name":"Penticton Airport"},"CYYG":{"lat":46.2889,"lon":-63.1252,"city":"Charlottetown","country":"CA","name":"Charlottetown Airport"},"CYYJ":{"lat":48.6472,"lon":-123.4278,"city":"Victoria","country":"CA","name":"Victoria International Airport"},"CYYL":{"lat":56.8639,"lon":-101.076,"city":"Lynn Lake","country":"CA","name":"Lynn Lake Airport"},"CYYN":{"lat":50.2919,"lon":-107.691,"city":"Swift Current","country":"CA","name":"Swift Current Airport"},"CYYQ":{"lat":58.7392,"lon":-94.065,"city":"Churchill","country":"CA","name":"Churchill Airport"},"CYYR":{"lat":53.3192,"lon":-60.4258,"city":"Goose Bay","country":"CA","name":"Goose Bay Airport"},"CYYT":{"lat":47.6186,"lon":-52.7519,"city":"St. John's","country":"CA","name":"St. John's International Airport"},"CYYU":{"lat":49.4116,"lon":-82.4696,"city":"Kapuskasing","country":"CA","name":"Kapuskasing Airport"},"CYYW":{"lat":50.2903,"lon":-88.9097,"city":"Armstrong","country":"CA","name":"Armstrong Airport"},"CYYY":{"lat":48.6086,"lon":-68.2081,"city":"Mont-Joli","country":"CA","name":"Mont Joli Airport"},"CYYZ":{"lat":43.6759,"lon":-79.6294,"city":"Toronto","country":"CA","name":"Toronto Pearson International Airport"},"CYZE":{"lat":45.8853,"lon":-82.5678,"city":"Gore Bay","country":"CA","name":"Gore Bay Manitoulin Airport"},"CYZF":{"lat":62.4628,"lon":-114.44,"city":"Yellowknife","country":"CA","name":"Yellowknife International Airport"},"CYZH":{"lat":55.2929,"lon":-114.7773,"city":"Slave Lake","country":"CA","name":"Slave Lake Airport"},"CYZP":{"lat":53.2543,"lon":-131.814,"city":"Sandspit","country":"CA","name":"Sandspit Airport"},"CYZR":{"lat":42.9994,"lon":-82.3089,"city":"Sarnia","country":"CA","name":"Chris Hadfield Airport"},"CYZS":{"lat":64.1933,"lon":-83.3594,"city":"Coral Harbour","country":"CA","name":"Coral Harbour Airport"},"CYZT":{"lat":50.6806,"lon":-127.367,"city":"Port Hardy","country":"CA","name":"Port Hardy Airport"},"CYZU":{"lat":54.1439,"lon":-115.787,"city":"Whitecourt","country":"CA","name":"Whitecourt Airport"},"CYZV":{"lat":50.2233,"lon":-66.2656,"city":"Sept-\u00c3\u017dles","country":"CA","name":"Sept-\u00c3\u017dles Airport"},"CYZW":{"lat":60.1728,"lon":-132.743,"city":"Teslin","country":"CA","name":"Teslin Airport"},"CYZX":{"lat":44.9844,"lon":-64.9169,"city":"Greenwood","country":"CA","name":"CFB Greenwood"},"CYZY":{"lat":55.2978,"lon":-123.1339,"city":"Mackenzie","country":"CA","name":"Mackenzie Airport"},"CZAM":{"lat":50.6828,"lon":-119.229,"city":"Salmon Arm","country":"CA","name":"Shuswap Regional Airport"},"CZBB":{"lat":49.0743,"lon":-123.0069,"city":"Delta","country":"CA","name":"Boundary Bay Airport"},"CZBF":{"lat":47.6297,"lon":-65.7389,"city":"South Tetagouche","country":"CA","name":"Bathurst Airport"},"CZBM":{"lat":45.2908,"lon":-72.7414,"city":"Bromont","country":"CA","name":"Bromont (Roland D\u00c3\u00a9sourdy) Airport"},"CZEE":{"lat":56.0375,"lon":-96.5097,"city":"Kelsey","country":"CA","name":"Kelsey Airport"},"CZFA":{"lat":62.2075,"lon":-133.376,"city":"Faro","country":"CA","name":"Faro Airport"},"CZGF":{"lat":49.0156,"lon":-118.431,"city":"Grand Forks","country":"CA","name":"Grand Forks Airport"},"CZJG":{"lat":54.5189,"lon":-98.0461,"city":"Jenpeg","country":"CA","name":"Jenpeg Airport"},"CZJN":{"lat":52.1206,"lon":-101.236,"city":"Swan River","country":"CA","name":"Swan River Airport"},"CZLQ":{"lat":55.3189,"lon":-97.7078,"city":"Thicket Portage","country":"CA","name":"Thicket Portage Airport"},"CZMN":{"lat":55.5889,"lon":-97.1642,"city":"Pikwitonei","country":"CA","name":"Pikwitonei Airport"},"CZMT":{"lat":54.0275,"lon":-132.125,"city":"Masset","country":"CA","name":"Masset Airport"},"CZPC":{"lat":49.5204,"lon":-113.997,"city":"Pincher Creek","country":"CA","name":"Pincher Creek Airport"},"CZSJ":{"lat":53.0642,"lon":-93.3444,"city":"Sandy Lake","country":"CA","name":"Sandy Lake Airport"},"CZST":{"lat":55.9354,"lon":-129.9824,"city":"Stewart","country":"CA","name":"Stewart Airport"},"CZUC":{"lat":49.4282,"lon":-91.7204,"city":"Ignace","country":"CA","name":"Ignace Municipal Airport"},"DAAB":{"lat":36.5036,"lon":2.8142,"city":"Blida","country":"DZ","name":"Blida Airport"},"DAAD":{"lat":35.3325,"lon":4.2064,"city":"Ouled Sidi Brahim","country":"DZ","name":"Bou Saada Airport"},"DAAE":{"lat":36.7125,"lon":5.0699,"city":"B\u00c3\u00a9ja\u00c3\u00afa","country":"DZ","name":"Soummam\u00e2\u20ac\u201cAbane Ramdane Airport"},"DAAG":{"lat":36.6939,"lon":3.2145,"city":"Algiers","country":"DZ","name":"Houari Boumediene Airport"},"DAAJ":{"lat":24.2854,"lon":9.4637,"city":"Djanet","country":"DZ","name":"Tiska Djanet Airport"},"DAAK":{"lat":36.5458,"lon":2.8761,"city":"Boufarik","country":"DZ","name":"Boufarik Air Base"},"DAAP":{"lat":26.7235,"lon":8.6227,"city":"Illizi","country":"DZ","name":"Illizi Takhamalt Airport"},"DAAS":{"lat":36.1785,"lon":5.3299,"city":"S\u00c3\u00a9tif","country":"DZ","name":"Ain Arnat Airport"},"DAAT":{"lat":22.811,"lon":5.4508,"city":"Tamanrasset","country":"DZ","name":"Aguenar \u00e2\u20ac\u201c Hadj Bey Akhamok Airport"},"DAAV":{"lat":36.7941,"lon":5.8737,"city":"Tahir","country":"DZ","name":"Jijel Ferhat Abbas Airport"},"DAAY":{"lat":33.5359,"lon":-0.2424,"city":"Mecheria","country":"DZ","name":"Mecheria Airport"},"DAAZ":{"lat":35.753,"lon":0.6259,"city":"Relizane","country":"DZ","name":"Relizane Airport"},"DABB":{"lat":36.8268,"lon":7.8133,"city":"Annaba","country":"DZ","name":"Annaba Rabah Bitat Airport"},"DABC":{"lat":36.276,"lon":6.6204,"city":"Constantine","country":"DZ","name":"Mohamed Boudiaf International Airport"},"DABS":{"lat":35.4316,"lon":8.1207,"city":"T\u00c3\u00a9bessi","country":"DZ","name":"Cheikh Larbi T\u00c3\u00a9bessi Airport"},"DABT":{"lat":35.7521,"lon":6.3086,"city":"Batna","country":"DZ","name":"Batna Mostefa Ben Boulaid Airport"},"DAFH":{"lat":32.9304,"lon":3.3115,"city":"Hassi R'Mel","country":"DZ","name":"Hassi R'Mel Airport"},"DAOB":{"lat":35.3411,"lon":1.4631,"city":"Tiaret","country":"DZ","name":"Abdelhafid Boussouf Bou Chekif Airport"},"DAOF":{"lat":27.7004,"lon":-8.1671,"city":"Tindouf","country":"DZ","name":"Tindouf Airport"},"DAOI":{"lat":36.2166,"lon":1.3411,"city":"Chlef","country":"DZ","name":"Chlef Aboubakr Belkaid International Airport"},"DAOL":{"lat":35.5424,"lon":-0.5323,"city":"Tafraoui","country":"DZ","name":"Oran Tafraoui Airport"},"DAON":{"lat":35.0127,"lon":-1.4571,"city":"Zenata","country":"DZ","name":"Zenata \u00e2\u20ac\u201c Messali El Hadj Airport"},"DAOO":{"lat":35.6206,"lon":-0.6225,"city":"Es-S\u00c3\u00a9nia","country":"DZ","name":"Oran Es-S\u00c3\u00a9nia (Ahmed Ben Bella) International Airport"},"DAOR":{"lat":31.6457,"lon":-2.2699,"city":"B\u00c3\u00a9char","country":"DZ","name":"B\u00c3\u00a9char Boudghene Ben Ali Lotfi Airport"},"DAOV":{"lat":35.2077,"lon":0.1471,"city":"Ghriss","country":"DZ","name":"Ghriss Airport"},"DAUA":{"lat":27.8376,"lon":-0.1864,"city":"Adrar","country":"DZ","name":"Touat-Cheikh Sidi Mohamed Belkebir Airport"},"DAUB":{"lat":34.7932,"lon":5.7389,"city":"Biskra","country":"DZ","name":"Biskra - Mohamed Khider Airport"},"DAUE":{"lat":30.5807,"lon":2.8616,"city":"El Menia","country":"DZ","name":"El Golea Airport"},"DAUG":{"lat":32.3841,"lon":3.7941,"city":"El Atteuf","country":"DZ","name":"Noum\u00c3\u00a9rat - Moufdi Zakaria Airport"},"DAUH":{"lat":31.673,"lon":6.1404,"city":"Hassi Messaoud","country":"DZ","name":"Hassi Messaoud-Oued Irara Krim Belkacem Airport"},"DAUI":{"lat":27.251,"lon":2.512,"city":"In Salah","country":"DZ","name":"In Salah Airport"},"DAUK":{"lat":33.0678,"lon":6.0887,"city":"Touggourt","country":"DZ","name":"Touggourt Sidi Madhi Airport"},"DAUL":{"lat":33.7644,"lon":2.9283,"city":"Laghouat","country":"DZ","name":"Laghouat - Molay Ahmed Medeghri Airport"},"DAUO":{"lat":33.5114,"lon":6.7768,"city":"Guemar","country":"DZ","name":"Guemar Airport - \u00d9\u2026\u00d8\u00b7\u00d8\u00a7\u00d8\u00b1 \u00d9\u201a\u00d9\u2026\u00d8\u00a7\u00d8\u00b1 \u00d8\u00a8\u00d8\u00a7\u00d9\u201e\u00d9\u02c6\u00d8\u00a7\u00d8\u00af\u00d9\u0160"},"DAUT":{"lat":29.2371,"lon":0.276,"city":"Timimoun","country":"DZ","name":"Timimoun Airport"},"DAUU":{"lat":31.9172,"lon":5.4128,"city":"Ouargla","country":"DZ","name":"Ain Beida Airport"},"DAUZ":{"lat":28.0515,"lon":9.6429,"city":"In Am\u00c3\u00a9nas","country":"DZ","name":"Zarzaitine - In Am\u00c3\u00a9nas Airport"},"DBBB":{"lat":6.3572,"lon":2.3843,"city":"Cotonou","country":"BJ","name":"Cotonou Cadjehoun International Airport"},"DFFD":{"lat":12.3532,"lon":-1.5124,"city":"Ouagadougou","country":"BF","name":"Ouagadougou Thomas Sankara International Airport"},"DFOO":{"lat":11.1601,"lon":-4.331,"city":"Bobo Dioulasso","country":"BF","name":"Bobo Dioulasso Airport"},"DGAA":{"lat":5.6052,"lon":-0.1668,"city":"Accra","country":"GH","name":"Kotoka International Airport"},"DGAH":{"lat":6.5797,"lon":0.5325,"city":"Ho","country":"GH","name":"Ho Airport"},"DGLE":{"lat":9.5539,"lon":-0.8661,"city":"Tamale","country":"GH","name":"Yakubu Tali International Airport"},"DGSI":{"lat":6.7146,"lon":-1.5908,"city":"Kumasi","country":"GH","name":"Prempeh I International Airport"},"DGSN":{"lat":7.3618,"lon":-2.3288,"city":"Sunyani","country":"GH","name":"Sunyani Airport"},"DGTK":{"lat":4.8961,"lon":-1.7748,"city":"Sekondi-Takoradi","country":"GH","name":"Takoradi Airport"},"DIAP":{"lat":5.2614,"lon":-3.9263,"city":"Abidjan","country":"CI","name":"F\u00c3\u00a9lix-Houphou\u00c3\u00abt-Boigny International Airport"},"DIBK":{"lat":7.7388,"lon":-5.0737,"city":"Bouak\u00c3\u00a9","country":"CI","name":"Bouak\u00c3\u00a9 Airport"},"DIDL":{"lat":6.7928,"lon":-6.4732,"city":"","country":"CI","name":"Daloa Airport"},"DIKO":{"lat":9.3872,"lon":-5.5567,"city":"Korhogo","country":"CI","name":"Korhogo Airport"},"DIMN":{"lat":7.2721,"lon":-7.5874,"city":"","country":"CI","name":"Man Airport"},"DISP":{"lat":4.7467,"lon":-6.6608,"city":"","country":"CI","name":"San Pedro Airport"},"DIYO":{"lat":6.9032,"lon":-5.3656,"city":"Yamoussoukro","country":"CI","name":"Yamoussoukro International Airport"},"DNKT":{"lat":13.0078,"lon":7.6604,"city":"Katsina","country":"NG","name":"Umaru Musa Yar'adua Airport"},"DNAA":{"lat":9.0068,"lon":7.2632,"city":"Abuja","country":"NG","name":"Nnamdi Azikiwe International Airport"},"DNAI":{"lat":4.8725,"lon":8.093,"city":"Uyo","country":"NG","name":"Akwa Ibom International Airport"},"DNAK":{"lat":7.2467,"lon":5.301,"city":"Akure","country":"NG","name":"Akure Airport"},"DNAS":{"lat":6.2042,"lon":6.6653,"city":"Asaba","country":"NG","name":"Asaba International Airport"},"DNBC":{"lat":10.4828,"lon":9.744,"city":"Bauchi","country":"NG","name":"Sir Abubakar Tafawa Balewa Bauchi State International Airport"},"DNBE":{"lat":6.317,"lon":5.5995,"city":"Benin","country":"NG","name":"Benin Airport"},"DNBY":{"lat":4.9576,"lon":6.2033,"city":"Yenagoa","country":"NG","name":"Bayelsa International Airport"},"DNCA":{"lat":4.976,"lon":8.3472,"city":"Calabar","country":"NG","name":"Margaret Ekpo International Airport"},"DNEN":{"lat":6.4737,"lon":7.5605,"city":"Enegu","country":"NG","name":"Akanu Ibiam International Airport"},"DNGO":{"lat":10.2989,"lon":10.9,"city":"Gombe","country":"NG","name":"Gombe Lawanti International Airport"},"DNGU":{"lat":12.1729,"lon":6.6961,"city":"Gusau","country":"NG","name":"Gusau Airport"},"DNIB":{"lat":7.3625,"lon":3.9783,"city":"Ibadan","country":"NG","name":"Ibadan Airport"},"DNIL":{"lat":8.4402,"lon":4.4939,"city":"Ilorin/Ogbomosho","country":"NG","name":"General Tunde Idiagbon International Airport"},"DNIM":{"lat":5.4271,"lon":7.206,"city":"Owerri","country":"NG","name":"Sam Mbakwe International Cargo Airport"},"DNJO":{"lat":9.6398,"lon":8.8691,"city":"Jos","country":"NG","name":"Yakubu Gowon Airport"},"DNKA":{"lat":10.696,"lon":7.3201,"city":"Kaduna","country":"NG","name":"Kaduna International Airport"},"DNKN":{"lat":12.0456,"lon":8.5236,"city":"Kano","country":"NG","name":"Mallam Aminu Kano International Airport"},"DNMA":{"lat":11.8542,"lon":13.0807,"city":"Maiduguri","country":"NG","name":"Maiduguri International Airport"},"DNMK":{"lat":7.7039,"lon":8.6139,"city":"Makurdi","country":"NG","name":"Makurdi Airport"},"DNMM":{"lat":6.5774,"lon":3.3212,"city":"Lagos","country":"NG","name":"Murtala Muhammed International Airport"},"DNMN":{"lat":9.6522,"lon":6.4623,"city":"Minna","country":"NG","name":"Minna Airport"},"DNPO":{"lat":5.0155,"lon":6.9496,"city":"Port Harcourt","country":"NG","name":"Port Harcourt International Airport"},"DNSO":{"lat":12.9157,"lon":5.2075,"city":"Sokoto","country":"NG","name":"Sadiq Abubakar III International Airport"},"DNSU":{"lat":5.5982,"lon":5.8187,"city":"Okpe","country":"NG","name":"Warri Airport"},"DNYO":{"lat":9.2576,"lon":12.4304,"city":"Yola","country":"NG","name":"Yola Airport"},"DNZA":{"lat":11.1302,"lon":7.6858,"city":"Zaria","country":"NG","name":"Zaria Airport"},"DRRM":{"lat":13.5025,"lon":7.1268,"city":"Maradi","country":"NE","name":"Maradi Airport"},"DRRN":{"lat":13.4815,"lon":2.1836,"city":"Niamey","country":"NE","name":"Diori Hamani International Airport"},"DRRT":{"lat":14.8757,"lon":5.2654,"city":"Tahoua","country":"NE","name":"Tahoua Airport"},"DRZA":{"lat":16.966,"lon":8.0001,"city":"Agadez","country":"NE","name":"Mano Dayak International Airport"},"DRZR":{"lat":13.779,"lon":8.9838,"city":"Zinder","country":"NE","name":"Zinder Airport"},"DTKA":{"lat":36.98,"lon":8.8769,"city":"Tabarka","country":"TN","name":"Tabarka-A\u00c3\u00afn Draham International Airport"},"DTMB":{"lat":35.7581,"lon":10.7547,"city":"Monastir","country":"TN","name":"Monastir Habib Bourguiba International Airport"},"DTNH":{"lat":36.0758,"lon":10.4386,"city":"Enfidha","country":"TN","name":"Enfidha - Hammamet International Airport"},"DTTA":{"lat":36.851,"lon":10.2272,"city":"Tunis","country":"TN","name":"Tunis Carthage International Airport"},"DTTB":{"lat":37.2424,"lon":9.787,"city":"Borj Challouf","country":"TN","name":"Bizerte Sidi Ahmed Air Base"},"DTTD":{"lat":32.3062,"lon":10.3821,"city":"Remada","country":"TN","name":"Remada Air Base"},"DTTF":{"lat":34.422,"lon":8.8225,"city":"Gafsa","country":"TN","name":"Gafsa Ksar International Airport"},"DTTG":{"lat":33.7337,"lon":9.9194,"city":"Gab\u00c3\u00a8s","country":"TN","name":"Gab\u00c3\u00a8s Matmata International Airport"},"DTTJ":{"lat":33.8737,"lon":10.7773,"city":"Mellita","country":"TN","name":"Djerba Zarzis International Airport"},"DTTR":{"lat":31.7043,"lon":9.2546,"city":"El Borma","country":"TN","name":"El Borma Airport"},"DTTX":{"lat":34.718,"lon":10.691,"city":"Sfax","country":"TN","name":"Sfax Thyna International Airport"},"DTTZ":{"lat":33.9397,"lon":8.1106,"city":"Tozeur","country":"TN","name":"Tozeur Nefta International Airport"},"DXNG":{"lat":9.7667,"lon":1.0909,"city":"Niamtougou","country":"TG","name":"Niamtougou International Airport"},"DXXX":{"lat":6.1656,"lon":1.2545,"city":"Lom\u00c3\u00a9","country":"TG","name":"Lom\u00c3\u00a9\u00e2\u20ac\u201cTokoin International Airport"},"EBAW":{"lat":51.1907,"lon":4.4632,"city":"Antwerp","country":"BE","name":"Antwerp International Airport (Deurne)"},"EBBE":{"lat":50.7586,"lon":4.7683,"city":"Beauvechain","country":"BE","name":"Beauvechain Air Base"},"EBBL":{"lat":51.1683,"lon":5.47,"city":"Kleine Brogel","country":"BE","name":"Kleine Brogel Air Base"},"EBBR":{"lat":50.9014,"lon":4.4844,"city":"Zaventem","country":"BE","name":"Brussels Airport"},"EBCI":{"lat":50.462,"lon":4.4596,"city":"Charleroi","country":"BE","name":"Brussels South Charleroi Airport"},"EBCV":{"lat":50.5758,"lon":3.831,"city":"Chi\u00c3\u00a8vres","country":"BE","name":"Chi\u00c3\u00a8vres Air Base"},"EBFN":{"lat":51.0903,"lon":2.6528,"city":"Koksijde","country":"BE","name":"Koksijde Air Base"},"EBFS":{"lat":50.2433,"lon":4.6458,"city":"Florennes","country":"BE","name":"Florennes Air Base"},"EBKT":{"lat":50.8189,"lon":3.2096,"city":"Wevelgem","country":"BE","name":"Flanders International Airport Kortrijk-Wevelgem"},"EBLG":{"lat":50.6386,"lon":5.4439,"city":"Gr\u00c3\u00a2ce-Hollogne","country":"BE","name":"Li\u00c3\u00a8ge Airport"},"EBOS":{"lat":51.1998,"lon":2.8747,"city":"Oostende","country":"BE","name":"Ostend-Bruges International Airport"},"EDAC":{"lat":50.9819,"lon":12.5064,"city":"Nobitz","country":"DE","name":"Leipzig\u00e2\u20ac\u201cAltenburg Airport"},"EDAH":{"lat":53.8787,"lon":14.1523,"city":"Zirchow","country":"DE","name":"Heringsdorf Airport"},"EDBN":{"lat":53.6022,"lon":13.306,"city":"Trollenhagen","country":"DE","name":"Neubrandenburg Trollenhagen Airport"},"EDBR":{"lat":51.3633,"lon":14.95,"city":"Rothenburg/Oberlausitz","country":"DE","name":"Rothenburg/G\u00c3\u00b6rlitz Airfield"},"EDDB":{"lat":52.3617,"lon":13.5023,"city":"Berlin","country":"DE","name":"Berlin Brandenburg Airport"},"EDDC":{"lat":51.1341,"lon":13.7678,"city":"Dresden","country":"DE","name":"Dresden Airport"},"EDDE":{"lat":50.9783,"lon":10.9607,"city":"Erfurt","country":"DE","name":"Erfurt-Weimar Airport"},"EDDF":{"lat":50.0267,"lon":8.5584,"city":"Frankfurt am Main","country":"DE","name":"Frankfurt Main Airport"},"EDDG":{"lat":52.1338,"lon":7.6885,"city":"Greven","country":"DE","name":"M\u00c3\u00bcnster Osnabr\u00c3\u00bcck Airport"},"EDDH":{"lat":53.6304,"lon":9.9882,"city":"Hamburg","country":"DE","name":"Hamburg Helmut Schmidt Airport"},"EDDK":{"lat":50.8659,"lon":7.1427,"city":"K\u00c3\u00b6ln (Cologne)","country":"DE","name":"Cologne Bonn Airport"},"EDDL":{"lat":51.2895,"lon":6.7668,"city":"D\u00c3\u00bcsseldorf","country":"DE","name":"D\u00c3\u00bcsseldorf Airport"},"EDDM":{"lat":48.3538,"lon":11.7861,"city":"Munich","country":"DE","name":"Munich Airport"},"EDDN":{"lat":49.4987,"lon":11.0781,"city":"Nuremberg","country":"DE","name":"Nuremberg Airport"},"EDDP":{"lat":51.4207,"lon":12.2327,"city":"Schkeuditz","country":"DE","name":"Leipzig/Halle Airport"},"EDDR":{"lat":49.2176,"lon":7.1117,"city":"Saarbr\u00c3\u00bccken","country":"DE","name":"Saarbr\u00c3\u00bccken Airport"},"EDDS":{"lat":48.6899,"lon":9.222,"city":"Stuttgart","country":"DE","name":"Stuttgart Airport"},"EDDV":{"lat":52.4611,"lon":9.6851,"city":"Hannover","country":"DE","name":"Hannover Airport"},"EDDW":{"lat":53.0468,"lon":8.7893,"city":"Bremen","country":"DE","name":"Bremen Airport"},"EDFE":{"lat":49.96,"lon":8.643,"city":"Egelsbach","country":"DE","name":"Frankfurt-Egelsbach Airport"},"EDFH":{"lat":49.9464,"lon":7.2617,"city":"Frankfurt am Main (Lautzenhausen)","country":"DE","name":"Frankfurt-Hahn Airport"},"EDFM":{"lat":49.4731,"lon":8.5142,"city":"Mannheim","country":"DE","name":"Mannheim-City Airport"},"EDFZ":{"lat":49.9675,"lon":8.1472,"city":"Mainz","country":"DE","name":"Mainz-Finthen Airfield"},"EDGE":{"lat":50.9916,"lon":10.4797,"city":"H\u00c3\u00b6rselberg-Hainich","country":"DE","name":"Eisenach-Kindel Airport"},"EDGS":{"lat":50.7077,"lon":8.083,"city":"Burbach","country":"DE","name":"Siegerland Airport"},"EDHI":{"lat":53.5353,"lon":9.8356,"city":"Hamburg","country":"DE","name":"Hamburg-Finkenwerder Airport"},"EDHK":{"lat":54.3796,"lon":10.1453,"city":"Kiel","country":"DE","name":"Kiel-Holtenau Airport"},"EDHL":{"lat":53.8054,"lon":10.7192,"city":"L\u00c3\u00bcbeck","country":"DE","name":"L\u00c3\u00bcbeck Blankensee Airport"},"EDJA":{"lat":47.9881,"lon":10.2382,"city":"Memmingen","country":"DE","name":"Memmingen Allgau Airport"},"EDLI":{"lat":51.9647,"lon":8.5444,"city":"Bielefeld","country":"DE","name":"Bielefeld Airport"},"EDLN":{"lat":51.2303,"lon":6.5044,"city":"M\u00c3\u00b6nchengladbach","country":"DE","name":"M\u00c3\u00b6nchengladbach Airport"},"EDLP":{"lat":51.6125,"lon":8.6175,"city":"B\u00c3\u00bcren","country":"DE","name":"Paderborn Lippstadt Airport"},"EDLV":{"lat":51.6014,"lon":6.1412,"city":"Weeze","country":"DE","name":"Weeze (Niederrhein) Airport"},"EDLW":{"lat":51.5183,"lon":7.6122,"city":"Dortmund","country":"DE","name":"Dortmund Airport"},"EDMA":{"lat":48.4253,"lon":10.9317,"city":"Augsburg","country":"DE","name":"Augsburg Airport"},"EDML":{"lat":48.512,"lon":12.0349,"city":"Landshut","country":"DE","name":"Landshut Airfield"},"EDMO":{"lat":48.0814,"lon":11.2831,"city":"We\u00c3\u0178ling","country":"DE","name":"Oberpfaffenhofen Airport"},"EDNY":{"lat":47.6713,"lon":9.5115,"city":"Friedrichshafen","country":"DE","name":"Bodensee Airport Friedrichshafen"},"EDQA":{"lat":49.9204,"lon":10.9142,"city":"Bamberg","country":"DE","name":"Bamberg-Breitenau Airfield"},"EDQD":{"lat":49.985,"lon":11.64,"city":"Bindlach","country":"DE","name":"Bayreuth Airport"},"EDQM":{"lat":50.2885,"lon":11.8529,"city":"Hof","country":"DE","name":"Hof-Plauen Airport"},"EDSB":{"lat":48.7794,"lon":8.0805,"city":"Rheinm\u00c3\u00bcnster","country":"DE","name":"Karlsruhe Baden-Baden Airport"},"EDTD":{"lat":47.9733,"lon":8.5222,"city":"Donaueschingen","country":"DE","name":"Donaueschingen-Villingen Airfield"},"EDTL":{"lat":48.3693,"lon":7.8277,"city":"Lahr/Schwarzwald","country":"DE","name":"Lahr Airport"},"EDTM":{"lat":48.0539,"lon":9.3728,"city":"Mengen","country":"DE","name":"Mengen-Hohentengen Airfield"},"EDTY":{"lat":49.1183,"lon":9.7839,"city":"Schw\u00c3\u00a4bisch Hall","country":"DE","name":"Adolf W\u00c3\u00bcrth Airport"},"EDUZ":{"lat":52.0008,"lon":12.1486,"city":"Straguth","country":"DE","name":"Zerbst Airfield"},"EDVE":{"lat":52.3192,"lon":10.5561,"city":"Braunschweig","country":"DE","name":"Braunschweig-Wolfsburg Airport"},"EDVK":{"lat":51.4184,"lon":9.3916,"city":"Calden","country":"DE","name":"Kassel Airport"},"EDXW":{"lat":54.9132,"lon":8.3405,"city":"Sylt","country":"DE","name":"Westerland Sylt Airport"},"EEEI":{"lat":59.2596,"lon":24.2048,"city":"Keila","country":"EE","name":"\u00c3\u201emari Air Base"},"EEKA":{"lat":58.9908,"lon":22.8307,"city":"K\u00c3\u00a4rdla","country":"EE","name":"K\u00c3\u00a4rdla Airport"},"EEKE":{"lat":58.2299,"lon":22.5095,"city":"Kuressaare","country":"EE","name":"Kuressaare Airport"},"EEPU":{"lat":58.419,"lon":24.4728,"city":"P\u00c3\u00a4rnu","country":"EE","name":"P\u00c3\u00a4rnu Airport"},"HEBR":{"lat":23.9804,"lon":35.4603,"city":"Berenice Troglodytica","country":"EG","name":"Berenice International Airport / Banas Cape Air Base"},"EETN":{"lat":59.4132,"lon":24.8326,"city":"Tallinn","country":"EE","name":"Lennart Meri Tallinn Airport"},"EETU":{"lat":58.3074,"lon":26.6865,"city":"Tartu","country":"EE","name":"Tartu Airport"},"EFET":{"lat":68.3626,"lon":23.4243,"city":"Enontekio","country":"FI","name":"Enontekio Airport"},"EFHA":{"lat":61.856,"lon":24.7867,"city":"J\u00c3\u00a4ms\u00c3\u00a4","country":"FI","name":"Halli Airport"},"EFHK":{"lat":60.3184,"lon":24.9633,"city":"Helsinki (Vantaa)","country":"FI","name":"Helsinki Vantaa Airport"},"EFIT":{"lat":62.1661,"lon":30.0736,"city":"Kitee","country":"FI","name":"Kitee Airport"},"EFIV":{"lat":68.6073,"lon":27.4053,"city":"Ivalo","country":"FI","name":"Ivalo Airport"},"EFJO":{"lat":62.6588,"lon":29.6194,"city":"Joensuu","country":"FI","name":"Joensuu Airport"},"EFJY":{"lat":62.3995,"lon":25.6783,"city":"Jyv\u00c3\u00a4skyl\u00c3\u00a4n Maalaiskunta","country":"FI","name":"Jyv\u00c3\u00a4skyl\u00c3\u00a4 Airport"},"EFKA":{"lat":63.1271,"lon":23.0514,"city":"Kauhava","country":"FI","name":"Kauhava Airfield"},"EFKE":{"lat":65.7787,"lon":24.5821,"city":"Kemi / Tornio","country":"FI","name":"Kemi-Tornio Airport"},"EFKI":{"lat":64.2855,"lon":27.6924,"city":"Kajaani","country":"FI","name":"Kajaani Airport"},"EFKJ":{"lat":62.4632,"lon":22.3908,"city":"Kauhajoki","country":"FI","name":"Kauhajoki Airfield"},"EFKK":{"lat":63.7212,"lon":23.1431,"city":"Kokkola / Kruunupyy","country":"FI","name":"Kokkola-Pietarsaari Airport"},"EFKS":{"lat":65.9876,"lon":29.2394,"city":"Kuusamo","country":"FI","name":"Kuusamo Airport"},"EFKT":{"lat":67.701,"lon":24.8468,"city":"Kittil\u00c3\u00a4","country":"FI","name":"Kittil\u00c3\u00a4 International Airport"},"EFKU":{"lat":63.0071,"lon":27.7978,"city":"Kuopio / Siilinj\u00c3\u00a4rvi","country":"FI","name":"Kuopio Airport"},"EFLP":{"lat":61.0446,"lon":28.1447,"city":"Lappeenranta","country":"FI","name":"Lappeenranta Airport"},"EFMA":{"lat":60.1222,"lon":19.8982,"city":"Mariehamn","country":"FI","name":"Mariehamn Airport"},"EFMI":{"lat":61.6866,"lon":27.2018,"city":"Mikkeli","country":"FI","name":"Mikkeli Airport"},"EFOU":{"lat":64.9301,"lon":25.3546,"city":"Oulu / Oulunsalo","country":"FI","name":"Oulu Airport"},"EFPO":{"lat":61.4617,"lon":21.8,"city":"Pori","country":"FI","name":"Pori Airport"},"EFPR":{"lat":60.4792,"lon":26.5939,"city":"Helsinki (Pyht\u00c3\u00a4\u00c3\u00a4)","country":"FI","name":"Helsinki East-Redstone Aerodrome"},"EFRO":{"lat":66.5633,"lon":25.8298,"city":"Rovaniemi","country":"FI","name":"Rovaniemi Airport"},"EFSA":{"lat":61.9431,"lon":28.9451,"city":"Savonlinna","country":"FI","name":"Savonlinna Airport"},"EFSI":{"lat":62.6921,"lon":22.8323,"city":"Sein\u00c3\u00a4joki / Ilmajoki","country":"FI","name":"Sein\u00c3\u00a4joki Airport"},"EFSO":{"lat":67.395,"lon":26.6191,"city":"Sodankyla","country":"FI","name":"Sodankyla Airport"},"EFTP":{"lat":61.4141,"lon":23.6044,"city":"Tampere / Pirkkala","country":"FI","name":"Tampere-Pirkkala Airport"},"EFTU":{"lat":60.5141,"lon":22.2628,"city":"Turku","country":"FI","name":"Turku Airport"},"EFUT":{"lat":60.8964,"lon":26.9384,"city":"Utti / Valkeala","country":"FI","name":"Utti Air Base"},"EFVA":{"lat":63.0502,"lon":21.7625,"city":"Vaasa","country":"FI","name":"Vaasa Airport"},"EFVR":{"lat":62.1711,"lon":27.8686,"city":"Varkaus / Joroinen","country":"FI","name":"Varkaus Airport"},"EFYL":{"lat":64.0547,"lon":24.7253,"city":"Ylivieska","country":"FI","name":"Ylivieska Airfield"},"EGAA":{"lat":54.6575,"lon":-6.2158,"city":"Belfast","country":"GB","name":"Belfast International Airport"},"EGAB":{"lat":54.3983,"lon":-7.6512,"city":"Enniskillen, Fermanagh and Omagh","country":"GB","name":"Enniskillen/St Angelo Airport"},"EGAC":{"lat":54.6181,"lon":-5.8725,"city":"Belfast","country":"GB","name":"George Best Belfast City Airport"},"EGAE":{"lat":55.0428,"lon":-7.1611,"city":"Derry, Derry and Strabane","country":"GB","name":"City of Derry Airport"},"EGBB":{"lat":52.4539,"lon":-1.748,"city":"Birmingham, West Midlands","country":"GB","name":"Birmingham Airport"},"EGBE":{"lat":52.3697,"lon":-1.4797,"city":"Coventry, West Midlands","country":"GB","name":"Coventry Airport"},"EGBJ":{"lat":51.8942,"lon":-2.1672,"city":"Staverton, Gloucestershire","country":"GB","name":"Gloucestershire Airport"},"EGBN":{"lat":52.92,"lon":-1.0792,"city":"Nottingham, Nottinghamshire","country":"GB","name":"Nottingham City Airport"},"EGCC":{"lat":53.3494,"lon":-2.2795,"city":"Manchester, Greater Manchester","country":"GB","name":"Manchester Airport"},"EGDC":{"lat":51.0872,"lon":-4.1503,"city":"Chivenor","country":"GB","name":"Royal Marines Base Chivenor"},"EGDM":{"lat":51.1522,"lon":-1.7474,"city":"Salisbury, Wiltshire","country":"GB","name":"MoD Boscombe Down"},"EGDR":{"lat":50.0861,"lon":-5.2557,"city":"Helston","country":"GB","name":"RNAS Culdrose"},"EGSY":{"lat":51.4052,"lon":-3.4333,"city":"St Athan, Vale of Glamorgan","country":"GB","name":"MOD St Athan"},"EGDY":{"lat":51.0094,"lon":-2.6388,"city":"Yeovil, Somerset","country":"GB","name":"RNAS Yeovilton"},"EGEC":{"lat":55.4372,"lon":-5.6864,"city":"Campbeltown","country":"GB","name":"Campbeltown Airport"},"EGED":{"lat":59.1906,"lon":-2.7722,"city":"Eday","country":"GB","name":"Eday Airport"},"EGFE":{"lat":51.8331,"lon":-4.9611,"city":"Haverfordwest","country":"GB","name":"Haverfordwest Airport"},"EGFF":{"lat":51.3967,"lon":-3.3433,"city":"Cardiff","country":"GB","name":"Cardiff International Airport"},"EGFH":{"lat":51.6014,"lon":-4.071,"city":"Swansea","country":"GB","name":"Swansea Airport"},"EGGD":{"lat":51.3823,"lon":-2.7165,"city":"Bristol","country":"GB","name":"Bristol Airport"},"EGGP":{"lat":53.3349,"lon":-2.8496,"city":"Liverpool","country":"GB","name":"Liverpool John Lennon Airport"},"EGGW":{"lat":51.8747,"lon":-0.3683,"city":"Luton, Luton","country":"GB","name":"London Luton Airport"},"EGHH":{"lat":50.7805,"lon":-1.8396,"city":"Bournemouth","country":"GB","name":"Bournemouth Airport"},"EGHI":{"lat":50.9503,"lon":-1.3568,"city":"Southampton","country":"GB","name":"Southampton Airport"},"EGHL":{"lat":51.1874,"lon":-1.0317,"city":"Alton, Hampshire","country":"GB","name":"Lasham Airfield"},"EGHQ":{"lat":50.4406,"lon":-4.9954,"city":"Newquay","country":"GB","name":"Cornwall Airport Newquay"},"EGJA":{"lat":49.7061,"lon":-2.2147,"city":"Saint Anne","country":"GG","name":"Alderney Airport"},"EGJB":{"lat":49.435,"lon":-2.602,"city":"Saint Peter Port","country":"GG","name":"Guernsey Airport"},"EGJJ":{"lat":49.2079,"lon":-2.1955,"city":"St. Peter","country":"JE","name":"Jersey Airport"},"EGKA":{"lat":50.8356,"lon":-0.2972,"city":"Brighton, East Sussex","country":"GB","name":"Brighton City Airport"},"EGKB":{"lat":51.3308,"lon":0.0325,"city":"London","country":"GB","name":"London Biggin Hill Airport"},"EGKK":{"lat":51.1487,"lon":-0.1857,"city":"London","country":"GB","name":"London Gatwick Airport"},"EGLC":{"lat":51.5053,"lon":0.0553,"city":"London","country":"GB","name":"London City Airport"},"EGLF":{"lat":51.2758,"lon":-0.7763,"city":"Farnborough, Hampshire","country":"GB","name":"Farnborough Airport"},"EGLK":{"lat":51.3239,"lon":-0.8475,"city":"Camberley, Surrey","country":"GB","name":"Blackbushe Airport"},"EGLL":{"lat":51.4707,"lon":-0.4599,"city":"London","country":"GB","name":"London Heathrow Airport"},"EGMC":{"lat":51.5706,"lon":0.6936,"city":"Southend-on-Sea, Essex","country":"GB","name":"London Southend Airport"},"EGMD":{"lat":50.9562,"lon":0.9391,"city":"Romney Marsh, Kent","country":"GB","name":"Lydd London Ashford Airport"},"EGNC":{"lat":54.9375,"lon":-2.8092,"city":"Carlisle, Cumbria","country":"GB","name":"Carlisle Lake District Airport"},"EGNH":{"lat":53.7717,"lon":-3.0286,"city":"Blackpool","country":"GB","name":"Blackpool Airport"},"EGNJ":{"lat":53.5762,"lon":-0.3495,"city":"Grimsby, Lincolnshire","country":"GB","name":"Humberside Airport"},"EGNL":{"lat":54.1286,"lon":-3.2675,"city":"Barrow-in-Furness","country":"GB","name":"Barrow Walney Island Airport"},"EGNM":{"lat":53.8659,"lon":-1.6606,"city":"Leeds, West Yorkshire","country":"GB","name":"Leeds Bradford Airport"},"EGNO":{"lat":53.7451,"lon":-2.8831,"city":"Warton","country":"GB","name":"Warton Aerodrome"},"EGNR":{"lat":53.1781,"lon":-2.9778,"city":"Broughton","country":"GB","name":"Hawarden Airport"},"EGNS":{"lat":54.0831,"lon":-4.6239,"city":"Castletown","country":"IM","name":"Isle of Man Airport"},"EGNT":{"lat":55.038,"lon":-1.6896,"city":"Newcastle upon Tyne, Tyne and Wear","country":"GB","name":"Newcastle International Airport"},"EGNV":{"lat":54.5092,"lon":-1.4294,"city":"Darlington, Durham","country":"GB","name":"Teesside International Airport"},"EGNX":{"lat":52.8311,"lon":-1.3281,"city":"Nottingham, Leicestershire","country":"GB","name":"East Midlands Airport"},"EGOM":{"lat":55.05,"lon":-2.55,"city":"Spadeadam","country":"GB","name":"RAF Spadeadam"},"EGOS":{"lat":52.7982,"lon":-2.668,"city":"Shrewsbury, Shropshire","country":"GB","name":"RAF Shawbury"},"EGOV":{"lat":53.2481,"lon":-4.5353,"city":"Angelsey","country":"GB","name":"Anglesey Airport"},"EGPA":{"lat":58.9579,"lon":-2.9051,"city":"Kirkwall, Orkney Islands","country":"GB","name":"Kirkwall Airport"},"EGPB":{"lat":59.8789,"lon":-1.2956,"city":"Lerwick, Shetland","country":"GB","name":"Sumburgh Airport"},"EGPC":{"lat":58.4589,"lon":-3.0931,"city":"Wick","country":"GB","name":"Wick John O'Groats Airport"},"EGPD":{"lat":57.2019,"lon":-2.1978,"city":"Aberdeen","country":"GB","name":"Aberdeen International Airport"},"EGPE":{"lat":57.5425,"lon":-4.0475,"city":"Inverness","country":"GB","name":"Inverness Airport"},"EGPF":{"lat":55.8719,"lon":-4.4331,"city":"Glasgow","country":"GB","name":"Glasgow Airport"},"EGPH":{"lat":55.9501,"lon":-3.3723,"city":"Edinburgh","country":"GB","name":"Edinburgh Airport"},"EGPI":{"lat":55.6827,"lon":-6.2575,"city":"Isle of Islay, Argyll and Bute","country":"GB","name":"Islay Airport"},"EGPK":{"lat":55.5015,"lon":-4.5772,"city":"Prestwick, South Ayrshire","country":"GB","name":"Glasgow Prestwick Airport"},"EGPL":{"lat":57.4811,"lon":-7.3628,"city":"Balivanich","country":"GB","name":"Benbecula Airport"},"EGPN":{"lat":56.4525,"lon":-3.0258,"city":"Dundee","country":"GB","name":"Dundee Airport"},"EGPO":{"lat":58.2156,"lon":-6.3311,"city":"Stornoway, Western Isles","country":"GB","name":"Stornoway Airport"},"EGPR":{"lat":57.0228,"lon":-7.4431,"city":"Eoligarry","country":"GB","name":"Barra Airport"},"EGPU":{"lat":56.4992,"lon":-6.8692,"city":"Balemartine, Argyll and Bute","country":"GB","name":"Tiree Airport"},"EGQL":{"lat":56.374,"lon":-2.8689,"city":"Leuchars, Fife","country":"GB","name":"Leuchars Station Airfield"},"EGQS":{"lat":57.7052,"lon":-3.3392,"city":"Lossiemouth, Moray","country":"GB","name":"RAF Lossiemouth"},"EGSC":{"lat":52.205,"lon":0.175,"city":"Cambridge, Cambridgeshire","country":"GB","name":"Cambridge City Airport"},"EGSH":{"lat":52.6758,"lon":1.2828,"city":"Norwich, Norfolk","country":"GB","name":"Norwich Airport"},"EGSS":{"lat":51.885,"lon":0.235,"city":"London, Essex","country":"GB","name":"London Stansted Airport"},"EGTC":{"lat":52.0722,"lon":-0.6167,"city":"Cranfield, Central Bedfordshire","country":"GB","name":"Cranfield Airport"},"EGTE":{"lat":50.7343,"lon":-3.414,"city":"Exeter, Devon","country":"GB","name":"Exeter International Airport"},"EGTK":{"lat":51.8369,"lon":-1.32,"city":"Kidlington, Oxfordshire","country":"GB","name":"London Oxford Airport"},"EGUB":{"lat":51.6144,"lon":-1.096,"city":"Wallingford, Oxfordshire","country":"GB","name":"RAF Benson"},"EGUL":{"lat":52.4095,"lon":0.5612,"city":"Brandon, Suffolk","country":"GB","name":"RAF Lakenheath"},"EGUN":{"lat":52.3619,"lon":0.4864,"city":"Bury Saint Edmunds, Suffolk","country":"GB","name":"RAF Mildenhall"},"EGUW":{"lat":52.1275,"lon":0.9562,"city":"Ipswich, Suffolk","country":"GB","name":"Wattisham Airfield"},"EGVA":{"lat":51.6836,"lon":-1.7892,"city":"Fairford, Gloucestershire","country":"GB","name":"RAF Fairford"},"EGVN":{"lat":51.75,"lon":-1.5836,"city":"Carterton, Oxfordshire","country":"GB","name":"RAF Brize Norton"},"EGVO":{"lat":51.2341,"lon":-0.9428,"city":"Hook, Hampshire","country":"GB","name":"RAF Odiham"},"EGWC":{"lat":52.6405,"lon":-2.3053,"city":"Cosford, Shropshire","country":"GB","name":"RAF Cosford"},"EGWU":{"lat":51.553,"lon":-0.4182,"city":"Northolt, Greater London","country":"GB","name":"RAF Northolt"},"EGXC":{"lat":53.093,"lon":-0.166,"city":"Lincoln, Lincolnshire","country":"GB","name":"RAF Coningsby"},"EGXE":{"lat":54.2972,"lon":-1.5389,"city":"Northallerton, North Yorkshire","country":"GB","name":"RAF Leeming"},"EGCM":{"lat":53.8347,"lon":-1.1947,"city":"Tadcaster, North Yorkshire","country":"GB","name":"Leeds East Airport"},"EGXH":{"lat":52.3426,"lon":0.7729,"city":"Bury Saint Edmunds, Suffolk","country":"GB","name":"RAF Honington"},"EGXT":{"lat":52.6126,"lon":-0.4765,"city":"Peterborough, Cambridgeshire","country":"GB","name":"RAF Wittering"},"EGXW":{"lat":53.1662,"lon":-0.5238,"city":"Lincoln, Lincolnshire","country":"GB","name":"RAF Waddington"},"EGXZ":{"lat":54.2041,"lon":-1.3803,"city":"Thirsk, North Yorkshire","country":"GB","name":"RAF Topcliffe"},"EGYD":{"lat":53.0273,"lon":-0.4931,"city":"Sleaford, Lincolnshire","country":"GB","name":"RAF Cranwell"},"EGYE":{"lat":52.9606,"lon":-0.5594,"city":"Grantham, Lincolnshire","country":"GB","name":"RAF Barkston Heath"},"EGYM":{"lat":52.6484,"lon":0.5507,"city":"King's Lynn, Norfolk","country":"GB","name":"RAF Marham"},"EGYP":{"lat":-51.8226,"lon":-58.4458,"city":"Mount Pleasant","country":"FK","name":"Mount Pleasant Airport / RAF Mount Pleasant"},"EHAM":{"lat":52.3086,"lon":4.7639,"city":"Amsterdam","country":"NL","name":"Amsterdam Airport Schiphol"},"EHBK":{"lat":50.9111,"lon":5.7694,"city":"Maastricht","country":"NL","name":"Maastricht Aachen Airport"},"EHEH":{"lat":51.4501,"lon":5.3745,"city":"Eindhoven","country":"NL","name":"Eindhoven Airport"},"EHGG":{"lat":53.1191,"lon":6.5777,"city":"Groningen","country":"NL","name":"Groningen Airport Eelde"},"EHGR":{"lat":51.5674,"lon":4.9318,"city":"Rijen","country":"NL","name":"Gilze Rijen Air Base"},"EHKD":{"lat":52.9234,"lon":4.7806,"city":"Den Helder","country":"NL","name":"De Kooy Airfield / Den Helder Naval Air Station"},"EHLE":{"lat":52.4532,"lon":5.5146,"city":"Lelystad","country":"NL","name":"Lelystad Airport"},"EHLW":{"lat":53.2286,"lon":5.7606,"city":"Leeuwarden","country":"NL","name":"Leeuwarden Air Base"},"EHRD":{"lat":51.9569,"lon":4.4372,"city":"Rotterdam","country":"NL","name":"Rotterdam The Hague Airport"},"EHTW":{"lat":52.2758,"lon":6.8892,"city":"Enschede","country":"NL","name":"Twente Airport"},"EHVK":{"lat":51.6572,"lon":5.7078,"city":"Uden","country":"NL","name":"Volkel Air Base"},"EHWO":{"lat":51.4491,"lon":4.342,"city":"Hoogerheide","country":"NL","name":"Woensdrecht Air Base"},"EICK":{"lat":51.8413,"lon":-8.4911,"city":"Cork","country":"IE","name":"Cork International Airport"},"EIDL":{"lat":55.0442,"lon":-8.341,"city":"Donegal","country":"IE","name":"Donegal Airport"},"EIDW":{"lat":53.4287,"lon":-6.2621,"city":"Dublin","country":"IE","name":"Dublin Airport"},"EIKN":{"lat":53.9104,"lon":-8.817,"city":"Charlestown","country":"IE","name":"Ireland West Airport Knock"},"EIKY":{"lat":52.1809,"lon":-9.5238,"city":"Farranfore","country":"IE","name":"Kerry Airport"},"EIME":{"lat":53.3017,"lon":-6.4513,"city":"Baldonnel","country":"IE","name":"Casement Air Base"},"EINN":{"lat":52.702,"lon":-8.9248,"city":"Shannon","country":"IE","name":"Shannon Airport"},"EISG":{"lat":54.2802,"lon":-8.5992,"city":"Sligo","country":"IE","name":"Sligo Airport"},"EIWF":{"lat":52.1872,"lon":-7.087,"city":"Waterford","country":"IE","name":"Waterford Airport"},"EKAH":{"lat":56.3033,"lon":10.6183,"city":"Aarhus","country":"DK","name":"Aarhus Airport"},"EKBI":{"lat":55.7403,"lon":9.157,"city":"Billund","country":"DK","name":"Billund Airport"},"EKCH":{"lat":55.6179,"lon":12.656,"city":"Copenhagen","country":"DK","name":"Copenhagen Kastrup Airport"},"EKEB":{"lat":55.5259,"lon":8.5534,"city":"Esbjerg","country":"DK","name":"Esbjerg Airport"},"EKKA":{"lat":56.2971,"lon":9.1043,"city":"Karup","country":"DK","name":"Midtjyllands Airport / Air Base Karup"},"EKMB":{"lat":54.6994,"lon":11.4382,"city":"R\u00c3\u00b8dby","country":"DK","name":"Lolland Falster Maribo Airport"},"EKOD":{"lat":55.4753,"lon":10.3272,"city":"Odense","country":"DK","name":"Odense Hans Christian Andersen Airport"},"EKRK":{"lat":55.5856,"lon":12.1314,"city":"Roskilde","country":"DK","name":"Copenhagen Roskilde Airport"},"EKRN":{"lat":55.0633,"lon":14.7596,"city":"R\u00c3\u00b8nne","country":"DK","name":"Bornholm Airport"},"EKSB":{"lat":54.9644,"lon":9.7917,"city":"S\u00c3\u00b8nderborg","country":"DK","name":"S\u00c3\u00b8nderborg Airport"},"EKSN":{"lat":57.5035,"lon":10.2294,"city":"Sindal","country":"DK","name":"Sindal Airport"},"EKSP":{"lat":55.221,"lon":9.267,"city":"Vojens","country":"DK","name":"Skrydstrup Air Base"},"EKSV":{"lat":56.5502,"lon":9.173,"city":"Skive","country":"DK","name":"Skive Airport"},"EKTS":{"lat":57.0688,"lon":8.7052,"city":"Thisted","country":"DK","name":"Thisted Airport"},"EKVD":{"lat":55.4363,"lon":9.3309,"city":"Kolding / Vamdrup","country":"DK","name":"Kolding Vamdrup Airfield"},"EKVG":{"lat":62.0633,"lon":-7.2758,"city":"V\u00c3\u00a1gar","country":"FO","name":"V\u00c3\u00a1gar Airport"},"EKVJ":{"lat":55.9901,"lon":8.3539,"city":"Skjern","country":"DK","name":"Stauning Vestjylland  Airport"},"EKYT":{"lat":57.0948,"lon":9.8499,"city":"Aalborg","country":"DK","name":"Aalborg Airport"},"ELLX":{"lat":49.6268,"lon":6.2121,"city":"Luxembourg","country":"LU","name":"Luxembourg-Findel International Airport"},"ENAL":{"lat":62.5604,"lon":6.1108,"city":"\u00c3\u2026lesund","country":"NO","name":"\u00c3\u2026lesund Airport"},"ENAN":{"lat":69.2952,"lon":16.1394,"city":"Andenes","country":"NO","name":"And\u00c3\u00b8ya Airport, Andenes"},"ENAT":{"lat":69.9761,"lon":23.3717,"city":"Alta","country":"NO","name":"Alta Airport"},"ENBN":{"lat":65.4611,"lon":12.2175,"city":"Br\u00c3\u00b8nn\u00c3\u00b8y","country":"NO","name":"Br\u00c3\u00b8nn\u00c3\u00b8ysund Airport, Br\u00c3\u00b8nn\u00c3\u00b8y"},"ENBO":{"lat":67.2692,"lon":14.3653,"city":"Bod\u00c3\u00b8","country":"NO","name":"Bod\u00c3\u00b8 Airport"},"ENBR":{"lat":60.2934,"lon":5.2181,"city":"Bergen","country":"NO","name":"Bergen Airport, Flesland"},"ENBS":{"lat":70.6003,"lon":29.6926,"city":"B\u00c3\u00a5tsfjord","country":"NO","name":"B\u00c3\u00a5tsfjord Airport"},"ENBV":{"lat":70.8715,"lon":29.0341,"city":"Berlev\u00c3\u00a5g","country":"NO","name":"Berlev\u00c3\u00a5g Airport"},"ENCN":{"lat":58.2042,"lon":8.0854,"city":"Kristiansand(Kjevik)","country":"NO","name":"Kristiansand Airport"},"ENDU":{"lat":69.0558,"lon":18.5404,"city":"M\u00c3\u00a5lselv","country":"NO","name":"Bardufoss Airport"},"ENEV":{"lat":68.4913,"lon":16.6781,"city":"Evenes","country":"NO","name":"Harstad/Narvik Airport"},"ENFL":{"lat":61.5836,"lon":5.0247,"city":"Flor\u00c3\u00b8","country":"NO","name":"Flor\u00c3\u00b8 Airport"},"ENGM":{"lat":60.1939,"lon":11.1004,"city":"Oslo (Gardermoen)","country":"NO","name":"Oslo-Gardermoen International Airport"},"ENHD":{"lat":59.3453,"lon":5.2084,"city":"Karm\u00c3\u00b8y","country":"NO","name":"Haugesund Airport, Karm\u00c3\u00b8y"},"ENHF":{"lat":70.6797,"lon":23.6686,"city":"Hammerfest","country":"NO","name":"Hammerfest Airport"},"ENHV":{"lat":71.0097,"lon":25.9836,"city":"Honningsv\u00c3\u00a5g","country":"NO","name":"Honningsv\u00c3\u00a5g Airport, Valan"},"ENKB":{"lat":63.1118,"lon":7.8245,"city":"Kvernberget","country":"NO","name":"Kristiansund Airport, Kvernberget"},"ENKR":{"lat":69.7258,"lon":29.8913,"city":"Kirkenes","country":"NO","name":"Kirkenes Airport, H\u00c3\u00b8ybuktmoen"},"ENLK":{"lat":68.1525,"lon":13.6094,"city":"Leknes","country":"NO","name":"Leknes Airport"},"ENMH":{"lat":71.0297,"lon":27.8267,"city":"Mehamn","country":"NO","name":"Mehamn Airport"},"ENML":{"lat":62.7447,"lon":7.2625,"city":"\u00c3\u2026r\u00c3\u00b8","country":"NO","name":"Molde Airport, \u00c3\u2026r\u00c3\u00b8"},"ENMS":{"lat":65.784,"lon":13.2149,"city":"Mosj\u00c3\u00b8en","country":"NO","name":"Mosj\u00c3\u00b8en Airport, Kj\u00c3\u00a6rstad"},"ENNA":{"lat":70.0688,"lon":24.9735,"city":"Lakselv","country":"NO","name":"Lakselv Airport, Banak"},"ENNO":{"lat":59.5651,"lon":9.2132,"city":"Notodden","country":"NO","name":"Notodden Airport"},"ENOL":{"lat":63.6989,"lon":9.604,"city":"\u00c3\u02dcrland","country":"NO","name":"\u00c3\u02dcrland Airport"},"ENOV":{"lat":62.18,"lon":6.0741,"city":"\u00c3\u02dcrsta","country":"NO","name":"\u00c3\u02dcrsta-Volda Airport, Hovden"},"ENRA":{"lat":66.3639,"lon":14.3014,"city":"Mo i Rana","country":"NO","name":"Mo i Rana Airport, R\u00c3\u00b8ssvoll"},"ENRM":{"lat":64.8383,"lon":11.1461,"city":"R\u00c3\u00b8rvik","country":"NO","name":"R\u00c3\u00b8rvik Airport, Ryum"},"ENRO":{"lat":62.5784,"lon":11.3423,"city":"R\u00c3\u00b8ros","country":"NO","name":"R\u00c3\u00b8ros Airport"},"ENRY":{"lat":59.3788,"lon":10.7854,"city":"Oslo","country":"NO","name":"Moss Airport, Rygge"},"ENSB":{"lat":78.2461,"lon":15.4656,"city":"Longyearbyen","country":"NO","name":"Svalbard Airport, Longyear"},"ENSH":{"lat":68.2433,"lon":14.6692,"city":"Svolv\u00c3\u00a6r","country":"NO","name":"Svolv\u00c3\u00a6r Airport, Helle"},"ENSK":{"lat":68.5788,"lon":15.0334,"city":"Hadsel","country":"NO","name":"Stokmarknes Airport, Skagen"},"ENSN":{"lat":59.185,"lon":9.5669,"city":"Geiteryggen","country":"NO","name":"Skien Airport"},"ENSO":{"lat":59.7919,"lon":5.3408,"city":"Leirvik","country":"NO","name":"Stord Airport, S\u00c3\u00b8rstokken"},"ENSR":{"lat":69.7868,"lon":20.9594,"city":"S\u00c3\u00b8rkjosen","country":"NO","name":"S\u00c3\u00b8rkjosen Airport"},"ENSS":{"lat":70.3554,"lon":31.0449,"city":"Vard\u00c3\u00b8","country":"NO","name":"Vard\u00c3\u00b8 Airport, Svartnes"},"ENST":{"lat":65.9568,"lon":12.4689,"city":"Alstahaug","country":"NO","name":"Sandnessj\u00c3\u00b8en Airport, Stokka"},"ENTC":{"lat":69.6833,"lon":18.9189,"city":"Troms\u00c3\u00b8","country":"NO","name":"Troms\u00c3\u00b8 Airport"},"ENTO":{"lat":59.1867,"lon":10.2586,"city":"Sandefjord(Torp)","country":"NO","name":"Sandefjord Airport, Torp"},"ENVA":{"lat":63.4578,"lon":10.924,"city":"Trondheim","country":"NO","name":"Trondheim Airport, V\u00c3\u00a6rnes"},"ENVD":{"lat":70.0653,"lon":29.8447,"city":"Vads\u00c3\u00b8","country":"NO","name":"Vads\u00c3\u00b8 Airport"},"ENZV":{"lat":58.8767,"lon":5.6378,"city":"Stavanger","country":"NO","name":"Stavanger Airport, Sola"},"EPBY":{"lat":53.0968,"lon":17.9777,"city":"Bydgoszcz","country":"PL","name":"Ignacy Jan Paderewski Bydgoszcz Airport"},"EPCE":{"lat":54.4165,"lon":17.7657,"city":"Siemirowice","country":"PL","name":"Cewice Naval Air Base"},"EPDE":{"lat":51.551,"lon":21.8923,"city":"D\u00c4\u2122blin","country":"PL","name":"Deblin Military Air Base"},"EPGD":{"lat":54.3776,"lon":18.4662,"city":"Gda\u00c5\u201esk","country":"PL","name":"Gda\u00c5\u201esk Lech Wa\u00c5\u201a\u00c4\u2122sa Airport"},"EPIR":{"lat":52.8294,"lon":18.3306,"city":"","country":"PL","name":"Inowroclaw Military Air Base"},"EPKK":{"lat":50.0777,"lon":19.7848,"city":"Balice","country":"PL","name":"Krak\u00c3\u00b3w John Paul II International Airport"},"EPKS":{"lat":52.3317,"lon":16.9664,"city":"Pozna\u00c5\u201e","country":"PL","name":"Krzesiny Military Air Base"},"EPKT":{"lat":50.476,"lon":19.0807,"city":"Katowice","country":"PL","name":"Katowice Wojciech Korfanty International Airport"},"EPLB":{"lat":51.2402,"lon":22.7135,"city":"Lublin","country":"PL","name":"Lublin Airport"},"EPLK":{"lat":51.5517,"lon":19.1791,"city":"\u00c5\udc81ask","country":"PL","name":"\u00c5\udc81ask Air Base"},"EPLL":{"lat":51.7219,"lon":19.3981,"city":"\u00c5\udc81\u00c3\u00b3d\u00c5\u00ba","country":"PL","name":"\u00c5\udc81\u00c3\u00b3d\u00c5\u00ba W\u00c5\u201aadys\u00c5\u201aaw Reymont Airport"},"EPLY":{"lat":52.0049,"lon":19.1438,"city":"Le\u00c5\u00banica Wielka","country":"PL","name":"Le\u00c5\u00banica Wielka Air Base"},"EPMB":{"lat":54.0266,"lon":19.1357,"city":"Kr\u00c3\u00b3lewo","country":"PL","name":"Malbork Kr\u00c3\u00b3lewo Air Base"},"EPMI":{"lat":53.3951,"lon":16.0828,"city":"Miros\u00c5\u201aawiec","country":"PL","name":"Miroslawiec Military Air Base"},"EPMM":{"lat":52.1955,"lon":21.6559,"city":"","country":"PL","name":"Minsk Mazowiecki Military Air Base"},"EPMO":{"lat":52.4511,"lon":20.6518,"city":"Nowy Dw\u00c3\u00b3r Mazowiecki","country":"PL","name":"Warsaw Modlin Airport"},"EPPO":{"lat":52.4216,"lon":16.8234,"city":"Pozna\u00c5\u201e","country":"PL","name":"Pozna\u00c5\u201e-\u00c5\udc81awica Airport"},"EPPW":{"lat":52.3801,"lon":17.8532,"city":"Powidz","country":"PL","name":"Powidz Military Air Base"},"EPRA":{"lat":51.3894,"lon":21.2147,"city":"Radom","country":"PL","name":"Warsaw Radom Airport"},"EPRZ":{"lat":50.1098,"lon":22.0242,"city":"Jasionka","country":"PL","name":"Rzesz\u00c3\u00b3w-Jasionka Airport"},"EPSC":{"lat":53.5847,"lon":14.9022,"city":"Szczecin(Glewice)","country":"PL","name":"Solidarity Szczecin\u00e2\u20ac\u201cGoleni\u00c3\u00b3w Airport"},"EPSN":{"lat":53.7906,"lon":15.8263,"city":"","country":"PL","name":"Swidwin Military Air Base"},"EPSY":{"lat":53.4819,"lon":20.9377,"city":"Szymany","country":"PL","name":"Olsztyn-Mazury Airport"},"EPTM":{"lat":51.5844,"lon":20.0978,"city":"Nowy Glinnik","country":"PL","name":"Tomasz\u00c3\u00b3w Mazowiecki Military Air Base"},"EPWA":{"lat":52.1657,"lon":20.9671,"city":"Warsaw","country":"PL","name":"Warsaw Chopin Airport"},"EPWR":{"lat":51.1037,"lon":16.8821,"city":"Wroc\u00c5\u201aaw","country":"PL","name":"Copernicus Wroc\u00c5\u201aaw Airport"},"EPZG":{"lat":52.1385,"lon":15.7986,"city":"Nowe Kramsko","country":"PL","name":"Zielona G\u00c3\u00b3ra-Babimost Airport"},"ESCF":{"lat":58.3977,"lon":15.5224,"city":"Link\u00c3\u00b6ping","country":"SE","name":"Malmen Air Base"},"ESDF":{"lat":56.2667,"lon":15.265,"city":"Ronneby","country":"SE","name":"Ronneby Airport"},"ESFR":{"lat":58.4981,"lon":13.0532,"city":"R\u00c3\u00a5da","country":"SE","name":"R\u00c3\u00a5da Air Base"},"ESGG":{"lat":57.6628,"lon":12.2798,"city":"G\u00c3\u00b6teborg","country":"SE","name":"G\u00c3\u00b6teborg Landvetter Airport"},"ESGJ":{"lat":57.7576,"lon":14.0687,"city":"J\u00c3\u00b6nk\u00c3\u00b6ping","country":"SE","name":"J\u00c3\u00b6nk\u00c3\u00b6ping Airport"},"ESGP":{"lat":57.7747,"lon":11.8704,"city":"G\u00c3\u00b6teborg","country":"SE","name":"S\u00c3\u00a4ve Airport"},"ESGR":{"lat":58.4564,"lon":13.9727,"city":"Sk\u00c3\u00b6vde","country":"SE","name":"Sk\u00c3\u00b6vde Airport"},"ESGT":{"lat":58.3181,"lon":12.345,"city":"Trollh\u00c3\u00a4ttan","country":"SE","name":"Trollh\u00c3\u00a4ttan-V\u00c3\u00a4nersborg Airport"},"ESIB":{"lat":58.4264,"lon":12.7144,"city":"S\u00c3\u00a5ten\u00c3\u00a4s","country":"SE","name":"S\u00c3\u00a5ten\u00c3\u00a4s Air Base"},"ESKK":{"lat":59.3459,"lon":14.4959,"city":"Karlskoga","country":"SE","name":"Karlskoga Airport"},"ESKM":{"lat":60.9579,"lon":14.5114,"city":"Mora","country":"SE","name":"Mora Airport"},"ESKN":{"lat":58.7897,"lon":16.9115,"city":"Nyk\u00c3\u00b6ping","country":"SE","name":"Stockholm Skavsta Airport"},"ESKS":{"lat":61.1651,"lon":12.8335,"city":"Malung-S\u00c3\u00a4len","country":"SE","name":"Scandinavian Mountains Airport"},"ESMK":{"lat":55.9217,"lon":14.0855,"city":"Kristianstad","country":"SE","name":"Kristianstad Airport"},"ESMQ":{"lat":56.6855,"lon":16.2876,"city":"Kalmar","country":"SE","name":"Kalmar Airport"},"ESMS":{"lat":55.5356,"lon":13.3763,"city":"Malm\u00c3\u00b6","country":"SE","name":"Malm\u00c3\u00b6 Sturup Airport"},"ESMT":{"lat":56.6911,"lon":12.8202,"city":"Halmstad","country":"SE","name":"Halmstad Airport"},"ESMX":{"lat":56.9291,"lon":14.728,"city":"V\u00c3\u00a4xj\u00c3\u00b6","country":"SE","name":"V\u00c3\u00a4xj\u00c3\u00b6 Kronoberg Airport"},"ESNG":{"lat":67.1324,"lon":20.8146,"city":"G\u00c3\u00a4llivare","country":"SE","name":"G\u00c3\u00a4llivare Airport"},"ESNK":{"lat":63.0486,"lon":17.7689,"city":"Nyland","country":"SE","name":"Kramfors-Sollefte\u00c3\u00a5 H\u00c3\u00b6ga Kusten Airport"},"ESNL":{"lat":64.5483,"lon":18.7162,"city":"Lycksele","country":"SE","name":"Lycksele Airport"},"ESNN":{"lat":62.5281,"lon":17.4439,"city":"Sundsvall/ H\u00c3\u00a4rn\u00c3\u00b6sand","country":"SE","name":"Sundsvall-H\u00c3\u00a4rn\u00c3\u00b6sand Airport"},"ESNO":{"lat":63.4083,"lon":18.99,"city":"\u00c3\u2013rnsk\u00c3\u00b6ldsvik","country":"SE","name":"\u00c3\u2013rnsk\u00c3\u00b6ldsvik Airport"},"ESNQ":{"lat":67.822,"lon":20.3368,"city":"Kiruna","country":"SE","name":"Kiruna Airport"},"ESNS":{"lat":64.6248,"lon":21.0769,"city":"Skellefte\u00c3\u00a5","country":"SE","name":"Skellefte\u00c3\u00a5 Airport"},"ESNU":{"lat":63.7918,"lon":20.2828,"city":"Ume\u00c3\u00a5","country":"SE","name":"Ume\u00c3\u00a5 Airport"},"ESNV":{"lat":64.5791,"lon":16.8336,"city":"Vilhelmina","country":"SE","name":"Vilhelmina South Lapland Airport"},"ESNX":{"lat":65.5903,"lon":19.2819,"city":"Arvidsjaur","country":"SE","name":"Arvidsjaur Airport"},"ESNY":{"lat":61.2615,"lon":17.0991,"city":"S\u00c3\u00b6derhamn","country":"SE","name":"S\u00c3\u00b6derhamn Airport"},"ESNZ":{"lat":63.1935,"lon":14.5042,"city":"\u00c3\u2013stersund","country":"SE","name":"\u00c3\u2026re \u00c3\u2013stersund Airport"},"ESOE":{"lat":59.2237,"lon":15.038,"city":"\u00c3\u2013rebro","country":"SE","name":"\u00c3\u2013rebro Airport"},"ESOK":{"lat":59.4447,"lon":13.3374,"city":"Karlstad","country":"SE","name":"Karlstad Airport"},"ESOW":{"lat":59.5894,"lon":16.6336,"city":"Stockholm / V\u00c3\u00a4ster\u00c3\u00a5s","country":"SE","name":"Stockholm V\u00c3\u00a4ster\u00c3\u00a5s Airport"},"ESPA":{"lat":65.5438,"lon":22.122,"city":"Lule\u00c3\u00a5","country":"SE","name":"Lule\u00c3\u00a5 Airport"},"ESSA":{"lat":59.6485,"lon":17.9288,"city":"Stockholm","country":"SE","name":"Stockholm-Arlanda Airport"},"ESSB":{"lat":59.3544,"lon":17.9417,"city":"Stockholm","country":"SE","name":"Stockholm-Bromma Airport"},"ESSD":{"lat":60.422,"lon":15.5152,"city":"Borlange","country":"SE","name":"Dala Airport"},"ESSK":{"lat":60.5933,"lon":16.9514,"city":"G\u00c3\u00a4vle / Sandviken","country":"SE","name":"G\u00c3\u00a4vle Sandviken Airport"},"ESSL":{"lat":58.4049,"lon":15.6845,"city":"Link\u00c3\u00b6ping","country":"SE","name":"Link\u00c3\u00b6ping City Airport"},"ESSP":{"lat":58.5863,"lon":16.2506,"city":"Norrk\u00c3\u00b6ping","country":"SE","name":"Norrk\u00c3\u00b6ping Airport"},"ESST":{"lat":60.1576,"lon":12.9913,"city":"Torsby","country":"SE","name":"Torsby Airport"},"ESSU":{"lat":59.3511,"lon":16.7084,"city":"Eskilstuna","country":"SE","name":"Eskilstuna Airport"},"ESSV":{"lat":57.6628,"lon":18.3462,"city":"Visby","country":"SE","name":"Visby Airport"},"ESTA":{"lat":56.2961,"lon":12.8471,"city":"\u00c3\u201engelholm","country":"SE","name":"\u00c3\u201engelholm-Helsingborg Airport"},"ESTL":{"lat":56.0828,"lon":13.2125,"city":"Ljungbyhed","country":"SE","name":"Ljungbyhed Airfield"},"ESUD":{"lat":64.9609,"lon":17.6966,"city":"Storuman","country":"SE","name":"Storuman Airport"},"ETAD":{"lat":49.9765,"lon":6.6984,"city":"Trier","country":"DE","name":"Spangdahlem Air Base"},"ETAR":{"lat":49.4369,"lon":7.6003,"city":"Ramstein-Miesenbach","country":"DE","name":"Ramstein Air Base"},"ETHB":{"lat":52.2785,"lon":9.0822,"city":"B\u00c3\u00bcckeburg","country":"DE","name":"B\u00c3\u00bcckeburg Air Base"},"ETHC":{"lat":52.5912,"lon":10.0221,"city":"Celle","country":"DE","name":"Celle Army Airfield"},"ETHF":{"lat":51.1146,"lon":9.286,"city":"Fritzlar","country":"DE","name":"Fritzlar Army Airfield"},"ETHL":{"lat":48.2203,"lon":9.91,"city":"Laupheim","country":"DE","name":"Laupheim Air Base"},"ETHN":{"lat":49.3916,"lon":9.9567,"city":"Niederstetten","country":"DE","name":"Niederstetten Army Air Base"},"ETHS":{"lat":52.9194,"lon":10.1858,"city":"Fa\u00c3\u0178berg","country":"DE","name":"Fa\u00c3\u0178berg Air Base"},"ETIC":{"lat":49.6987,"lon":11.9402,"city":"Grafenw\u00c3\u00b6hr","country":"DE","name":"Grafenw\u00c3\u00b6hr Army Air Field"},"ETIH":{"lat":49.2165,"lon":11.8361,"city":"Hohenfels","country":"DE","name":"Hohenfels Army Airfield"},"ETMN":{"lat":53.7677,"lon":8.6592,"city":"Wurster Nordseek\u00c3\u00bcste","country":"DE","name":"Sea-Airport Cuxhaven/Nordholz / Nordholz Naval Airbase"},"ETND":{"lat":52.5856,"lon":8.3422,"city":"Diepholz","country":"DE","name":"Diepholz Air Base"},"ETNG":{"lat":50.9608,"lon":6.0424,"city":"Geilenkirchen","country":"DE","name":"Geilenkirchen Air Base"},"ETNH":{"lat":54.3122,"lon":9.5382,"city":"Hohn","country":"DE","name":"Hohn Air Base"},"ETNL":{"lat":53.9182,"lon":12.2783,"city":"Laage","country":"DE","name":"Rostock-Laage Airport"},"ETNN":{"lat":50.8312,"lon":6.6582,"city":"N\u00c3\u00b6rvenich","country":"DE","name":"N\u00c3\u00b6rvenich Air Base"},"ETNS":{"lat":54.4593,"lon":9.5163,"city":"Jagel","country":"DE","name":"Schleswig Air Base"},"ETNT":{"lat":53.5478,"lon":7.6673,"city":"Wittmund","country":"DE","name":"Wittmundhafen Air Base"},"ETNW":{"lat":52.4573,"lon":9.4272,"city":"","country":"DE","name":"Wunstorf Air Base"},"ETOU":{"lat":50.0498,"lon":8.3254,"city":"Wiesbaden","country":"DE","name":"Wiesbaden Army Airfield"},"ETSB":{"lat":50.1738,"lon":7.0633,"city":"Alflen","country":"DE","name":"B\u00c3\u00bcchel Air Base"},"ETSH":{"lat":51.7678,"lon":13.1677,"city":"Holzdorf","country":"DE","name":"Holzdorf Air Base"},"ETSI":{"lat":48.7157,"lon":11.534,"city":"Manching","country":"DE","name":"Ingolstadt Manching Airport"},"ETSL":{"lat":48.1855,"lon":10.8612,"city":"Graben","country":"DE","name":"Lechfeld Air Base"},"ETSN":{"lat":48.711,"lon":11.2115,"city":"Neuburg an der Donau","country":"DE","name":"Neuburg Air Base"},"EVKA":{"lat":56.5347,"lon":25.8925,"city":"J\u00c4\u201ckabpils","country":"LV","name":"J\u00c4\u201ckabpils Air Base"},"EVLA":{"lat":56.5175,"lon":21.0969,"city":"Liep\u00c4\udc81ja","country":"LV","name":"Liep\u00c4\udc81ja International Airport"},"EVRA":{"lat":56.9208,"lon":23.9707,"city":"Riga","country":"LV","name":"Riga International Airport"},"EVJA":{"lat":56.9422,"lon":23.2239,"city":"Tukums","country":"LV","name":"J\u00c5\u00abrmala Airport"},"EYKA":{"lat":54.964,"lon":24.0858,"city":"Kaunas","country":"LT","name":"Kaunas International Airport"},"EYKD":{"lat":55.3117,"lon":23.9564,"city":"K\u00c4\u2014dainiai","country":"LT","name":"K\u00c4\u2014dainiai Air Base"},"EYPA":{"lat":55.9732,"lon":21.0939,"city":"Palanga","country":"LT","name":"Palanga International Airport"},"EYPP":{"lat":55.7294,"lon":24.4608,"city":"Panev\u00c4\u2014\u00c5\u00beys","country":"LT","name":"Panev\u00c4\u2014\u00c5\u00beys Air Base"},"EYSA":{"lat":55.8939,"lon":23.395,"city":"\u00c5\u00a0iauliai","country":"LT","name":"\u00c5\u00a0iauliai International Airport"},"EYSB":{"lat":56.0706,"lon":23.5581,"city":"\u00c5\u00a0iauliai","country":"LT","name":"Barysiai Airfield"},"EYVI":{"lat":54.6341,"lon":25.2858,"city":"Vilnius","country":"LT","name":"Vilnius International Airport"},"FAAB":{"lat":-28.575,"lon":16.5333,"city":"Alexander Bay","country":"ZA","name":"Alexander Bay Airport"},"FAAG":{"lat":-29.2818,"lon":18.8139,"city":"Aggeneys","country":"ZA","name":"Aggeneys Airport"},"FABE":{"lat":-32.8971,"lon":27.2791,"city":"Bisho","country":"ZA","name":"Bisho Airport"},"FABL":{"lat":-29.0927,"lon":26.3024,"city":"Bloemfontein","country":"ZA","name":"Bram Fischer International Airport"},"FABR":{"lat":-25.7171,"lon":30.975,"city":"Umjindi (Barberton)","country":"ZA","name":"Barberton Airport"},"FACT":{"lat":-33.974,"lon":18.6043,"city":"Cape Town","country":"ZA","name":"Cape Town International Airport"},"FAEL":{"lat":-33.0356,"lon":27.8259,"city":"East London","country":"ZA","name":"King Phalo Airport"},"FAEO":{"lat":-26.4956,"lon":29.9798,"city":"Ermelo","country":"ZA","name":"Ermelo Airport"},"FAFB":{"lat":-28.8231,"lon":27.9089,"city":"Ficksburg","country":"ZA","name":"Ficksburg Sentraoes Airport"},"FAGC":{"lat":-25.9863,"lon":28.1401,"city":"Midrand","country":"ZA","name":"Grand Central Airport"},"FAGG":{"lat":-34.0056,"lon":22.3789,"city":"George","country":"ZA","name":"George Airport"},"FAGM":{"lat":-26.2425,"lon":28.1512,"city":"Johannesburg","country":"ZA","name":"Rand Airport"},"FAHR":{"lat":-28.2351,"lon":29.1062,"city":"Harrismith","country":"ZA","name":"Harrismith Airport"},"FAKD":{"lat":-26.8711,"lon":26.718,"city":"Klerksdorp","country":"ZA","name":"P C Pelser Airport"},"FAKM":{"lat":-28.8054,"lon":24.7649,"city":"Kimberley","country":"ZA","name":"Kimberley Airport"},"FAKN":{"lat":-25.3833,"lon":31.1053,"city":"Mbombela","country":"ZA","name":"Kruger Mpumalanga International Airport"},"FAKU":{"lat":-27.4567,"lon":23.4114,"city":"Kuruman","country":"ZA","name":"Johan Pienaar Airport"},"FAKZ":{"lat":-29.6884,"lon":17.094,"city":"Kleinsee","country":"ZA","name":"Kleinsee Airport"},"FALA":{"lat":-25.939,"lon":27.9266,"city":"Johannesburg","country":"ZA","name":"Lanseria International Airport"},"FALC":{"lat":-28.3601,"lon":23.4391,"city":"Lime Acres","country":"ZA","name":"Lime Acres Finsch Mine Airport"},"FALE":{"lat":-29.6144,"lon":31.1197,"city":"Durban","country":"ZA","name":"King Shaka International Airport"},"FALW":{"lat":-32.9689,"lon":18.1603,"city":"Langebaanweg","country":"ZA","name":"Langebaanweg Airport"},"FALY":{"lat":-28.5817,"lon":29.7497,"city":"Ladysmith","country":"ZA","name":"Ladysmith Airport"},"FAMD":{"lat":-24.8169,"lon":31.5441,"city":"Malamala","country":"ZA","name":"Malamala Airport"},"FAMG":{"lat":-30.8574,"lon":30.343,"city":"Margate","country":"ZA","name":"Margate Airport"},"FAMM":{"lat":-25.7984,"lon":25.548,"city":"Mafeking","country":"ZA","name":"Mmabatho International Airport"},"FAMS":{"lat":-25.7045,"lon":26.909,"city":"Silveroaks","country":"ZA","name":"Morningside Farm Airport"},"FAMU":{"lat":-27.6261,"lon":32.0443,"city":"Mkuze","country":"ZA","name":"Mkuze Airport"},"FANC":{"lat":-27.7706,"lon":29.9769,"city":"Newcastle","country":"ZA","name":"Newcastle Airport"},"FAOH":{"lat":-33.607,"lon":22.189,"city":"Oudtshoorn","country":"ZA","name":"Oudtshoorn Airport"},"FAOR":{"lat":-26.1401,"lon":28.2468,"city":"Johannesburg","country":"ZA","name":"O.R. Tambo International Airport"},"FAPE":{"lat":-33.9897,"lon":25.6174,"city":"Gqeberha (Port Elizabeth)","country":"ZA","name":"Chief Dawid Stuurman International Airport"},"FAPG":{"lat":-34.0882,"lon":23.3287,"city":"Plettenberg Bay","country":"ZA","name":"Plettenberg Bay Airport"},"FAPH":{"lat":-23.9372,"lon":31.1554,"city":"Phalaborwa","country":"ZA","name":"Hendrik Van Eck Airport"},"FAPI":{"lat":-23.9261,"lon":29.4844,"city":"Polokwane","country":"ZA","name":"Pietersburg Municipal Airport"},"FAPJ":{"lat":-31.6061,"lon":29.5218,"city":"Port St Johns","country":"ZA","name":"Port St Johns Airport"},"FAPM":{"lat":-29.649,"lon":30.3987,"city":"Pietermaritzburg","country":"ZA","name":"Pietermaritzburg Airport"},"FAPN":{"lat":-25.3338,"lon":27.1734,"city":"Pilanesberg","country":"ZA","name":"Pilanesberg International Airport"},"FAPP":{"lat":-23.8453,"lon":29.4586,"city":"Polokwane","country":"ZA","name":"Polokwane International Airport"},"FAPS":{"lat":-26.671,"lon":27.0819,"city":"Potchefstroom","country":"ZA","name":"Potchefstroom Airport"},"FAQT":{"lat":-31.9202,"lon":26.8822,"city":"Queenstown","country":"ZA","name":"Queenstown Airport"},"FARB":{"lat":-28.741,"lon":32.0921,"city":"Richards Bay","country":"ZA","name":"Richards Bay Airport"},"FARG":{"lat":-25.6443,"lon":27.2711,"city":"Rustenburg","country":"ZA","name":"Rustenburg Airport"},"FARS":{"lat":-33.8122,"lon":19.9028,"city":"Robertson","country":"ZA","name":"Robertson Airport"},"FASB":{"lat":-29.6893,"lon":17.9396,"city":"Springbok","country":"ZA","name":"Springbok Airport"},"FASC":{"lat":-26.5241,"lon":29.1701,"city":"Secunda","country":"ZA","name":"Secunda Airport"},"FASD":{"lat":-32.9641,"lon":17.9693,"city":"Saldanha-Vredenburg","country":"ZA","name":"Saldanha/Vredenburg Airport"},"FASK":{"lat":-25.8097,"lon":28.1646,"city":"Pretoria","country":"ZA","name":"Swartkop Air Force Base"},"FASS":{"lat":-27.6486,"lon":22.9993,"city":"Sishen","country":"ZA","name":"Sishen Airport"},"FASZ":{"lat":-24.9609,"lon":31.5886,"city":"Skukuza","country":"ZA","name":"Skukuza Airport"},"FATZ":{"lat":-23.8244,"lon":30.3293,"city":"Tzaneen","country":"ZA","name":"Tzaneen Airport"},"FAUL":{"lat":-28.3206,"lon":31.4165,"city":"Ulundi","country":"ZA","name":"Prince Mangosuthu Buthelezi Airport"},"FAUP":{"lat":-28.4002,"lon":21.2636,"city":"Upington","country":"ZA","name":"Upington Airport"},"FAUT":{"lat":-31.5464,"lon":28.6734,"city":"Mthatha","country":"ZA","name":"K. D. Matanzima Airport"},"FAVB":{"lat":-26.9824,"lon":24.7288,"city":"Vyrburg","country":"ZA","name":"Vryburg Airport"},"FAVG":{"lat":-29.7706,"lon":31.0584,"city":"Durban","country":"ZA","name":"Virginia Airport"},"FAVR":{"lat":-31.641,"lon":18.5448,"city":"Vredendal","country":"ZA","name":"Vredendal Airport"},"FAVV":{"lat":-26.5664,"lon":27.9608,"city":"Vereeniging","country":"ZA","name":"Vereeniging Airport"},"FAWB":{"lat":-25.6539,"lon":28.2242,"city":"Pretoria","country":"ZA","name":"Wonderboom Airport"},"FAWK":{"lat":-25.83,"lon":28.2225,"city":"Pretoria","country":"ZA","name":"Waterkloof Air Force Base"},"FAYP":{"lat":-33.9002,"lon":18.4983,"city":"Cape Town","country":"ZA","name":"Ysterplaat Air Force Base"},"FBPM":{"lat":-21.1592,"lon":27.4688,"city":"Francistown","country":"BW","name":"Phillip Gaonwe Matante International Airport"},"FBJW":{"lat":-24.6023,"lon":24.691,"city":"Jwaneng","country":"BW","name":"Jwaneng Airport"},"FBKE":{"lat":-17.8317,"lon":25.1662,"city":"Kasane","country":"BW","name":"Kasane International Airport"},"FBMN":{"lat":-19.9705,"lon":23.4314,"city":"Maun","country":"BW","name":"Maun International Airport"},"FBSK":{"lat":-24.5552,"lon":25.9182,"city":"Gaborone","country":"BW","name":"Sir Seretse Khama International Airport"},"FBSN":{"lat":-20.5534,"lon":26.1158,"city":"Sowa","country":"BW","name":"Sua Pan Airport"},"FBSP":{"lat":-22.0583,"lon":27.8288,"city":"Selebi Phikwe","country":"BW","name":"Selebi Phikwe Airport"},"FCBB":{"lat":-4.2517,"lon":15.253,"city":"Brazzaville","country":"CG","name":"Maya-Maya International Airport"},"FCOD":{"lat":-1.2267,"lon":15.91,"city":"Oyo","country":"CG","name":"Oyo Ollombo Airport"},"FCOO":{"lat":-0.5246,"lon":15.9378,"city":"Owando","country":"CG","name":"Owando Airport"},"FCOU":{"lat":1.616,"lon":16.0379,"city":"","country":"CG","name":"Ouesso Airport"},"FCPD":{"lat":-4.2063,"lon":12.6599,"city":"Dolisie","country":"CG","name":"Ngot Nzoungou Airport"},"FCPP":{"lat":-4.816,"lon":11.8866,"city":"Pointe Noire","country":"CG","name":"Antonio Agostinho-Neto International Airport"},"FDMS":{"lat":-26.5289,"lon":31.3076,"city":"Manzini","country":"SZ","name":"Matsapha International Airport"},"FDSK":{"lat":-26.3586,"lon":31.7169,"city":"Mpaka","country":"SZ","name":"King Mswati III International Airport"},"FEFF":{"lat":4.3985,"lon":18.5188,"city":"Bangui","country":"CF","name":"Bangui M'Poko International Airport"},"FEFT":{"lat":4.2216,"lon":15.7864,"city":"Berb\u00c3\u00a9rati","country":"CF","name":"Berb\u00c3\u00a9rati Airport"},"FGBT":{"lat":1.9055,"lon":9.8057,"city":"Bata","country":"GQ","name":"Bata International Airport"},"FGMY":{"lat":1.6764,"lon":11.0249,"city":"Mengomey\u00c3\u00a9n","country":"GQ","name":"President Obiang Nguema International Airport"},"FGSL":{"lat":3.7553,"lon":8.7087,"city":"Malabo","country":"GQ","name":"Malabo International Airport"},"FHAW":{"lat":-7.9702,"lon":-14.3927,"city":"Cat Hill","country":"SH","name":"RAF Ascension Island"},"FHSH":{"lat":-15.9589,"lon":-5.6461,"city":"Jamestown","country":"SH","name":"Saint Helena International Airport"},"FIMP":{"lat":-20.4302,"lon":57.6836,"city":"Plaine Magnien","country":"MU","name":"Sir Seewoosagur Ramgoolam International Airport"},"FIMR":{"lat":-19.7567,"lon":63.3593,"city":"Port Mathurin","country":"MU","name":"Sir Charles Gaetan Duval Airport"},"FJDG":{"lat":-7.3133,"lon":72.4111,"city":"Diego Garcia","country":"IO","name":"Naval Support Facility Diego Garcia"},"FKKC":{"lat":4.0892,"lon":9.3605,"city":"Tiko","country":"CM","name":"Tiko Airport"},"FKKD":{"lat":4.0061,"lon":9.7195,"city":"Douala","country":"CM","name":"Douala International Airport"},"FKKL":{"lat":10.4514,"lon":14.2574,"city":"Maroua","country":"CM","name":"Salak Airport"},"FKKM":{"lat":5.6369,"lon":10.7508,"city":"Foumban","country":"CM","name":"Foumban Nkounja Airport"},"FKKN":{"lat":7.357,"lon":13.5592,"city":"N'Gaound\u00c3\u00a9r\u00c3\u00a9","country":"CM","name":"N'Gaound\u00c3\u00a9r\u00c3\u00a9 Airport"},"FKKR":{"lat":9.3348,"lon":13.3721,"city":"Garoua","country":"CM","name":"Garoua International Airport"},"FKKU":{"lat":5.5369,"lon":10.3546,"city":"Bafoussam","country":"CM","name":"Bafoussam Airport"},"FKKV":{"lat":6.0392,"lon":10.1226,"city":"Bamenda","country":"CM","name":"Bamenda Airport"},"FKKY":{"lat":3.836,"lon":11.5235,"city":"Yaound\u00c3\u00a9","country":"CM","name":"Yaound\u00c3\u00a9 Ville Airport"},"FKYS":{"lat":3.7226,"lon":11.5533,"city":"Yaound\u00c3\u00a9","country":"CM","name":"Yaound\u00c3\u00a9 Nsimalen International Airport"},"FLKE":{"lat":-12.5728,"lon":27.8939,"city":"Chingola","country":"ZM","name":"Kasompe Airport"},"FLLC":{"lat":-15.4138,"lon":28.3307,"city":"Lusaka","country":"ZM","name":"Lusaka City Airport"},"FLHN":{"lat":-17.8215,"lon":25.8196,"city":"Livingstone","country":"ZM","name":"Harry Mwanga Nkumbula International Airport"},"FLKK":{"lat":-15.3308,"lon":28.4527,"city":"Lusaka","country":"ZM","name":"Kenneth Kaunda International Airport"},"FLMF":{"lat":-13.2589,"lon":31.9366,"city":"Mfuwe","country":"ZM","name":"Mfuwe International Airport"},"FLMG":{"lat":-15.2545,"lon":23.1623,"city":"Mongu","country":"ZM","name":"Mongu Airport"},"FLND":{"lat":-12.9972,"lon":28.6639,"city":"Ndola","country":"ZM","name":"Peter Zuze Air Force Base"},"FLSK":{"lat":-12.9651,"lon":28.5156,"city":"Ndola","country":"ZM","name":"Simon Mwansa Kapwepwe International Airport"},"FLSO":{"lat":-12.9005,"lon":28.1499,"city":"Kitwe","country":"ZM","name":"Southdowns Airport"},"FMCH":{"lat":-11.5337,"lon":43.2719,"city":"Moroni","country":"KM","name":"Prince Said Ibrahim International Airport"},"FMCI":{"lat":-12.2981,"lon":43.7665,"city":"Fomboni","country":"KM","name":"Moh\u00c3\u00a9li Bandar Es Eslam Airport"},"FMCV":{"lat":-12.131,"lon":44.43,"city":"Ouani","country":"KM","name":"Ouani Airport"},